{"type": "FeatureCollection", "features": [{"type": "Feature", "properties": {"osm_id": 192105181, "osm_type": "node", "name": "川のおもしろ館", "name_ja": null, "category_key": "tourism", "category_value": "museum"}, "geometry": {"type": "Point", "coordinates": [142.3602666, 43.7763704]}}, {"type": "Feature", "properties": {"osm_id": 250668618, "osm_type": "node", "name": "アーティゾン美術館", "name_ja": "アーティゾン美術館", "category_key": "tourism", "category_value": "museum"}, "geometry": {"type": "Point", "coordinates": [139.7721285, 35.678749]}}, {"type": "Feature", "properties": {"osm_id": 250668627, "osm_type": "node", "name": "東京都写真美術館", "name_ja": "東京都写真美術館", "category_key": "tourism", "category_value": "museum"}, "geometry": {"type": "Point", "coordinates": [139.7133962, 35.641543]}}, {"type": "Feature", "properties": {"osm_id": 251055430, "osm_type": "node", "name": null, "name_ja": "伝統工芸 青山スクエア", "category_key": "tourism", "category_value": "museum"}, "geometry": {"type": "Point", "coordinates": [139.7093019, 35.7288374]}}, {"type": "Feature", "properties": {"osm_id": 266977554, "osm_type": "node", "name": "阿波十郎兵衛屋敷", "name_ja": null, "category_key": "tourism", "category_value": "museum"}, "geometry": {"type": "Point", "coordinates": [134.5840471, 34.0914976]}}, {"type": "Feature", "properties": {"osm_id": 267616237, "osm_type": "node", "name": "Kusano Shimpei Memorial Literature Centre", "name_ja": "草野心平記念文学館", "category_key": "tourism", "category_value": "museum"}, "geometry": {"type": "Point", "coordinates": [140.8326483, 37.1290363]}}, {"type": "Feature", "properties": {"osm_id": 268432286, "osm_type": "node", "name": "徳島県立鳥居龍蔵記念博物館", "name_ja": null, "category_key": "tourism", "category_value": "museum"}, "geometry": {"type": "Point", "coordinates": [134.5262343, 34.0399267]}}, {"type": "Feature", "properties": {"osm_id": 274484316, "osm_type": "node", "name": "ネイチャーセンター（徳島県立佐那河内いきものふれあいの里）", "name_ja": null, "category_key": "tourism", "category_value": "museum"}, "geometry": {"type": "Point", "coordinates": [134.4230908, 33.9583534]}}, {"type": "Feature", "properties": {"osm_id": 298348191, "osm_type": "node", "name": "長浜城歴史博物館", "name_ja": null, "category_key": "tourism", "category_value": "museum"}, "geometry": {"type": "Point", "coordinates": [136.2613976, 35.3776548]}}, {"type": "Feature", "properties": {"osm_id": 309824103, "osm_type": "node", "name": "からむし織の里", "name_ja": null, "category_key": "tourism", "category_value": "museum"}, "geometry": {"type": "Point", "coordinates": [139.6298178, 37.3261906]}}, {"type": "Feature", "properties": {"osm_id": 318411516, "osm_type": "node", "name": "青森県立美術館", "name_ja": null, "category_key": "tourism", "category_value": "museum"}, "geometry": {"type": "Point", "coordinates": [140.7008863, 40.8072917]}}, {"type": "Feature", "properties": {"osm_id": 335886120, "osm_type": "node", "name": "地図と測量の科学館", "name_ja": null, "category_key": "tourism", "category_value": "museum"}, "geometry": {"type": "Point", "coordinates": [140.0855345, 36.1041068]}}, {"type": "Feature", "properties": {"osm_id": 410166105, "osm_type": "node", "name": "日本サッカーミュージアム", "name_ja": null, "category_key": "tourism", "category_value": "museum"}, "geometry": {"type": "Point", "coordinates": [139.7639427, 35.7042546]}}, {"type": "Feature", "properties": {"osm_id": 411308398, "osm_type": "node", "name": "長浜市立曳山博物館", "name_ja": null, "category_key": "tourism", "category_value": "museum"}, "geometry": {"type": "Point", "coordinates": [136.2689049, 35.3813046]}}, {"type": "Feature", "properties": {"osm_id": 412643509, "osm_type": "node", "name": "秀鐘館", "name_ja": null, "category_key": "tourism", "category_value": "museum"}, "geometry": {"type": "Point", "coordinates": [136.2680638, 35.3765274]}}, {"type": "Feature", "properties": {"osm_id": 415166575, "osm_type": "node", "name": null, "name_ja": "慶雲館", "category_key": "tourism", "category_value": "museum"}, "geometry": {"type": "Point", "coordinates": [136.2662683, 35.3758017]}}, {"type": "Feature", "properties": {"osm_id": 416362429, "osm_type": "node", "name": "三島池ビジターセンター", "name_ja": null, "category_key": "tourism", "category_value": "museum"}, "geometry": {"type": "Point", "coordinates": [136.3584115, 35.3729996]}}, {"type": "Feature", "properties": {"osm_id": 416517262, "osm_type": "node", "name": "中近東文化センター", "name_ja": null, "category_key": "tourism", "category_value": "museum"}, "geometry": {"type": "Point", "coordinates": [139.5345824, 35.688788]}}, {"type": "Feature", "properties": {"osm_id": 423793540, "osm_type": "node", "name": "福島県立博物館", "name_ja": null, "category_key": "tourism", "category_value": "museum"}, "geometry": {"type": "Point", "coordinates": [139.9346302, 37.4888744]}}, {"type": "Feature", "properties": {"osm_id": 441655802, "osm_type": "node", "name": "上野の森美術館", "name_ja": "上野の森美術館", "category_key": "tourism", "category_value": "museum"}, "geometry": {"type": "Point", "coordinates": [139.7747663, 35.7128522]}}, {"type": "Feature", "properties": {"osm_id": 462263857, "osm_type": "node", "name": "青函トンネル記念館", "name_ja": null, "category_key": "tourism", "category_value": "museum"}, "geometry": {"type": "Point", "coordinates": [140.3466908, 41.2539479]}}, {"type": "Feature", "properties": {"osm_id": 462763241, "osm_type": "node", "name": "金融資料館", "name_ja": null, "category_key": "tourism", "category_value": "museum"}, "geometry": {"type": "Point", "coordinates": [141.0003253, 43.1962697]}}, {"type": "Feature", "properties": {"osm_id": 462763881, "osm_type": "node", "name": "小樽市立 小樽美術館", "name_ja": null, "category_key": "tourism", "category_value": "museum"}, "geometry": {"type": "Point", "coordinates": [141.0002996, 43.1966451]}}, {"type": "Feature", "properties": {"osm_id": 465163602, "osm_type": "node", "name": "北鎮記念館", "name_ja": null, "category_key": "tourism", "category_value": "museum"}, "geometry": {"type": "Point", "coordinates": [142.364899, 43.7884966]}}, {"type": "Feature", "properties": {"osm_id": 474597226, "osm_type": "node", "name": "北洋資料館", "name_ja": "函館市北洋資料館", "category_key": "tourism", "category_value": "museum"}, "geometry": {"type": "Point", "coordinates": [140.7560256, 41.7937194]}}, {"type": "Feature", "properties": {"osm_id": 506510055, "osm_type": "node", "name": "諸橋近代美術館", "name_ja": null, "category_key": "tourism", "category_value": "museum"}, "geometry": {"type": "Point", "coordinates": [140.0965274, 37.6538545]}}, {"type": "Feature", "properties": {"osm_id": 518517941, "osm_type": "node", "name": "向日市文化資料館", "name_ja": null, "category_key": "tourism", "category_value": "museum"}, "geometry": {"type": "Point", "coordinates": [135.699485, 34.9494786]}}, {"type": "Feature", "properties": {"osm_id": 534529037, "osm_type": "node", "name": "黒壁美術館", "name_ja": null, "category_key": "tourism", "category_value": "museum"}, "geometry": {"type": "Point", "coordinates": [136.2667137, 35.3810716]}}, {"type": "Feature", "properties": {"osm_id": 573247664, "osm_type": "node", "name": "関ケ原町歴史民俗資料館", "name_ja": "関ケ原町歴史民族史料館", "category_key": "tourism", "category_value": "museum"}, "geometry": {"type": "Point", "coordinates": [136.4662762, 35.3659134]}}, {"type": "Feature", "properties": {"osm_id": 582527746, "osm_type": "node", "name": "埋木舎", "name_ja": null, "category_key": "tourism", "category_value": "museum"}, "geometry": {"type": "Point", "coordinates": [136.2565319, 35.2756183]}}, {"type": "Feature", "properties": {"osm_id": 582761736, "osm_type": "node", "name": "開国記念館", "name_ja": null, "category_key": "tourism", "category_value": "museum"}, "geometry": {"type": "Point", "coordinates": [136.2553264, 35.2753394]}}, {"type": "Feature", "properties": {"osm_id": 597698437, "osm_type": "node", "name": "下鶴間ふるさと館", "name_ja": "下鶴間ふるさと館", "category_key": "tourism", "category_value": "museum"}, "geometry": {"type": "Point", "coordinates": [139.4642727, 35.5008836]}}, {"type": "Feature", "properties": {"osm_id": 602895164, "osm_type": "node", "name": "ひめゆり平和祈念資料館", "name_ja": null, "category_key": "tourism", "category_value": "museum"}, "geometry": {"type": "Point", "coordinates": [127.6903396, 26.0964986]}}, {"type": "Feature", "properties": {"osm_id": 602900690, "osm_type": "node", "name": "沖縄県平和祈念資料館", "name_ja": null, "category_key": "tourism", "category_value": "museum"}, "geometry": {"type": "Point", "coordinates": [127.7252361, 26.0965181]}}, {"type": "Feature", "properties": {"osm_id": 604349728, "osm_type": "node", "name": "五島美術館別館", "name_ja": null, "category_key": "tourism", "category_value": "museum"}, "geometry": {"type": "Point", "coordinates": [139.6358686, 35.6119856]}}, {"type": "Feature", "properties": {"osm_id": 605495788, "osm_type": "node", "name": "Folkcraft Museum", "name_ja": "竹富民芸館", "category_key": "tourism", "category_value": "museum"}, "geometry": {"type": "Point", "coordinates": [124.0857267, 24.3314127]}}, {"type": "Feature", "properties": {"osm_id": 620402671, "osm_type": "node", "name": "男山酒造り資料館", "name_ja": "男山酒造り資料館", "category_key": "tourism", "category_value": "museum"}, "geometry": {"type": "Point", "coordinates": [142.4093712, 43.7960375]}}, {"type": "Feature", "properties": {"osm_id": 651573302, "osm_type": "node", "name": "世田谷美術館分館 清川泰次記念ギャラリー", "name_ja": null, "category_key": "tourism", "category_value": "museum"}, "geometry": {"type": "Point", "coordinates": [139.6008373, 35.6385768]}}, {"type": "Feature", "properties": {"osm_id": 662020877, "osm_type": "node", "name": "石川県九谷焼美術館", "name_ja": null, "category_key": "tourism", "category_value": "museum"}, "geometry": {"type": "Point", "coordinates": [136.3102176, 36.3028094]}}, {"type": "Feature", "properties": {"osm_id": 667229245, "osm_type": "node", "name": "歴史民俗資料館", "name_ja": null, "category_key": "tourism", "category_value": "museum"}, "geometry": {"type": "Point", "coordinates": [137.4236394, 34.9770784]}}, {"type": "Feature", "properties": {"osm_id": 667230321, "osm_type": "node", "name": "鳳来寺山自然科学博物館", "name_ja": null, "category_key": "tourism", "category_value": "museum"}, "geometry": {"type": "Point", "coordinates": [137.5786703, 34.9722256]}}, {"type": "Feature", "properties": {"osm_id": 667238506, "osm_type": "node", "name": "茶臼山高原の美術館", "name_ja": null, "category_key": "tourism", "category_value": "museum"}, "geometry": {"type": "Point", "coordinates": [137.6581898, 35.22095]}}, {"type": "Feature", "properties": {"osm_id": 715390591, "osm_type": "node", "name": "琴引浜鳴き砂文化館", "name_ja": null, "category_key": "tourism", "category_value": "museum"}, "geometry": {"type": "Point", "coordinates": [135.0571412, 35.6975246]}}, {"type": "Feature", "properties": {"osm_id": 726946398, "osm_type": "node", "name": "滋賀サファリ博物館 (Shiga Safari Museum)", "name_ja": "滋賀サファリ博物館", "category_key": "tourism", "category_value": "museum"}, "geometry": {"type": "Point", "coordinates": [136.0875053, 34.9182536]}}, {"type": "Feature", "properties": {"osm_id": 727061804, "osm_type": "node", "name": "貨物鉄道博物館", "name_ja": null, "category_key": "tourism", "category_value": "museum"}, "geometry": {"type": "Point", "coordinates": [136.5189623, 35.1234371]}}, {"type": "Feature", "properties": {"osm_id": 794322494, "osm_type": "node", "name": "札幌市資料館", "name_ja": "札幌市資料館", "category_key": "tourism", "category_value": "museum"}, "geometry": {"type": "Point", "coordinates": [141.3374679, 43.0585319]}}, {"type": "Feature", "properties": {"osm_id": 794415286, "osm_type": "node", "name": "渡辺淳一文学館", "name_ja": "渡辺淳一文学館", "category_key": "tourism", "category_value": "museum"}, "geometry": {"type": "Point", "coordinates": [141.3512683, 43.0444572]}}, {"type": "Feature", "properties": {"osm_id": 811208933, "osm_type": "node", "name": "土と農の交流園", "name_ja": null, "category_key": "tourism", "category_value": "museum"}, "geometry": {"type": "Point", "coordinates": [139.6279406, 35.6590377]}}, {"type": "Feature", "properties": {"osm_id": 820849494, "osm_type": "node", "name": "旧新橋停車場鉄道歴史展示室", "name_ja": null, "category_key": "tourism", "category_value": "museum"}, "geometry": {"type": "Point", "coordinates": [139.7616202, 35.6659465]}}, {"type": "Feature", "properties": {"osm_id": 827594451, "osm_type": "node", "name": "鰊番屋", "name_ja": null, "category_key": "tourism", "category_value": "museum"}, "geometry": {"type": "Point", "coordinates": [141.655084, 44.137191]}}, {"type": "Feature", "properties": {"osm_id": 827594454, "osm_type": "node", "name": "花田家番屋", "name_ja": null, "category_key": "tourism", "category_value": "museum"}, "geometry": {"type": "Point", "coordinates": [141.655268, 44.1363965]}}, {"type": "Feature", "properties": {"osm_id": 828448474, "osm_type": "node", "name": "静岡市民ギャラリー", "name_ja": null, "category_key": "tourism", "category_value": "museum"}, "geometry": {"type": "Point", "coordinates": [138.3823664, 34.9754988]}}, {"type": "Feature", "properties": {"osm_id": 834712551, "osm_type": "node", "name": "黒曜石体験ミュージアム", "name_ja": null, "category_key": "tourism", "category_value": "museum"}, "geometry": {"type": "Point", "coordinates": [138.2031648, 36.1497009]}}, {"type": "Feature", "properties": {"osm_id": 839992072, "osm_type": "node", "name": "井川展示館", "name_ja": null, "category_key": "tourism", "category_value": "museum"}, "geometry": {"type": "Point", "coordinates": [138.2225107, 35.2115409]}}, {"type": "Feature", "properties": {"osm_id": 859539373, "osm_type": "node", "name": "河口湖自動車博物館 飛行舘", "name_ja": null, "category_key": "tourism", "category_value": "museum"}, "geometry": {"type": "Point", "coordinates": [138.7410533, 35.4536743]}}, {"type": "Feature", "properties": {"osm_id": 859540078, "osm_type": "node", "name": "河口湖自動車博物館 自動車館", "name_ja": null, "category_key": "tourism", "category_value": "museum"}, "geometry": {"type": "Point", "coordinates": [138.7415146, 35.4532723]}}, {"type": "Feature", "properties": {"osm_id": 862075621, "osm_type": "node", "name": "ふるさと館 田子倉", "name_ja": null, "category_key": "tourism", "category_value": "museum"}, "geometry": {"type": "Point", "coordinates": [139.3172193, 37.3483602]}}, {"type": "Feature", "properties": {"osm_id": 863002235, "osm_type": "node", "name": "三菱みなとみらい技術館", "name_ja": null, "category_key": "tourism", "category_value": "museum"}, "geometry": {"type": "Point", "coordinates": [139.6300831, 35.4557307]}}, {"type": "Feature", "properties": {"osm_id": 863048026, "osm_type": "node", "name": "秋乃宮博物館", "name_ja": "秋乃宮博物館", "category_key": "tourism", "category_value": "museum"}, "geometry": {"type": "Point", "coordinates": [140.5301006, 38.9601409]}}, {"type": "Feature", "properties": {"osm_id": 864725692, "osm_type": "node", "name": "こけし館", "name_ja": null, "category_key": "tourism", "category_value": "museum"}, "geometry": {"type": "Point", "coordinates": [140.573216, 38.120475]}}, {"type": "Feature", "properties": {"osm_id": 866264010, "osm_type": "node", "name": "海上保安資料館 横浜館", "name_ja": "海上保安資料館 横浜館", "category_key": "tourism", "category_value": "museum"}, "geometry": {"type": "Point", "coordinates": [139.6442523, 35.4542824]}}, {"type": "Feature", "properties": {"osm_id": 871928854, "osm_type": "node", "name": "喜多方蔵の里", "name_ja": null, "category_key": "tourism", "category_value": "museum"}, "geometry": {"type": "Point", "coordinates": [139.8610809, 37.6514401]}}, {"type": "Feature", "properties": {"osm_id": 873822477, "osm_type": "node", "name": "小牧市歴史館", "name_ja": null, "category_key": "tourism", "category_value": "museum"}, "geometry": {"type": "Point", "coordinates": [136.9134245, 35.2925017]}}, {"type": "Feature", "properties": {"osm_id": 921130817, "osm_type": "node", "name": "予科練平和記念館", "name_ja": "予科練平和記念館", "category_key": "tourism", "category_value": "museum"}, "geometry": {"type": "Point", "coordinates": [140.2234025, 36.0455721]}}, {"type": "Feature", "properties": {"osm_id": 938459586, "osm_type": "node", "name": "李登勝美術館", "name_ja": null, "category_key": "tourism", "category_value": "museum"}, "geometry": {"type": "Point", "coordinates": [137.6310432, 35.1620559]}}, {"type": "Feature", "properties": {"osm_id": 943287591, "osm_type": "node", "name": "トリックアート美術館", "name_ja": "トリックアート美術館", "category_key": "tourism", "category_value": "museum"}, "geometry": {"type": "Point", "coordinates": [139.2712036, 35.6330141]}}, {"type": "Feature", "properties": {"osm_id": 947948409, "osm_type": "node", "name": "花まつりの館", "name_ja": null, "category_key": "tourism", "category_value": "museum"}, "geometry": {"type": "Point", "coordinates": [137.7136068, 35.1217383]}}, {"type": "Feature", "properties": {"osm_id": 963510925, "osm_type": "node", "name": "岐阜かかみがはら航空宇宙博物館", "name_ja": null, "category_key": "tourism", "category_value": "museum"}, "geometry": {"type": "Point", "coordinates": [136.8613529, 35.3877149]}}, {"type": "Feature", "properties": {"osm_id": 973512813, "osm_type": "node", "name": "観来館", "name_ja": null, "category_key": "tourism", "category_value": "museum"}, "geometry": {"type": "Point", "coordinates": [137.5707219, 34.9687289]}}, {"type": "Feature", "properties": {"osm_id": 975676552, "osm_type": "node", "name": "いわむらかずお絵本の丘美術館", "name_ja": null, "category_key": "tourism", "category_value": "museum"}, "geometry": {"type": "Point", "coordinates": [140.1383032, 36.7799842]}}, {"type": "Feature", "properties": {"osm_id": 975680177, "osm_type": "node", "name": "なかがわ水遊園", "name_ja": null, "category_key": "tourism", "category_value": "museum"}, "geometry": {"type": "Point", "coordinates": [140.1290038, 36.790729]}}, {"type": "Feature", "properties": {"osm_id": 978844927, "osm_type": "node", "name": "町田市民文学館ことばらんど", "name_ja": null, "category_key": "tourism", "category_value": "museum"}, "geometry": {"type": "Point", "coordinates": [139.4515503, 35.5425627]}}, {"type": "Feature", "properties": {"osm_id": 986178442, "osm_type": "node", "name": "ヨコタ博物館", "name_ja": null, "category_key": "tourism", "category_value": "museum"}, "geometry": {"type": "Point", "coordinates": [137.40824, 34.9533763]}}, {"type": "Feature", "properties": {"osm_id": 988763541, "osm_type": "node", "name": "昭和館", "name_ja": null, "category_key": "tourism", "category_value": "museum"}, "geometry": {"type": "Point", "coordinates": [139.7509066, 35.6951109]}}, {"type": "Feature", "properties": {"osm_id": 1034112222, "osm_type": "node", "name": "伊香保保科美術館", "name_ja": null, "category_key": "tourism", "category_value": "museum"}, "geometry": {"type": "Point", "coordinates": [138.9222744, 36.5032802]}}, {"type": "Feature", "properties": {"osm_id": 1056757093, "osm_type": "node", "name": "向井潤吉アトリエ館", "name_ja": null, "category_key": "tourism", "category_value": "museum"}, "geometry": {"type": "Point", "coordinates": [139.6556672, 35.6355896]}}, {"type": "Feature", "properties": {"osm_id": 1058638426, "osm_type": "node", "name": "織成館(Orinasu-kan)", "name_ja": null, "category_key": "tourism", "category_value": "museum"}, "geometry": {"type": "Point", "coordinates": [135.7453938, 35.032868]}}, {"type": "Feature", "properties": {"osm_id": 1068012991, "osm_type": "node", "name": "南大東村立ふるさと文化センター", "name_ja": "南大東村立ふるさと文化センター", "category_key": "tourism", "category_value": "museum"}, "geometry": {"type": "Point", "coordinates": [131.2296077, 25.8290322]}}, {"type": "Feature", "properties": {"osm_id": 1068014185, "osm_type": "node", "name": "おきなわワールド玉泉洞", "name_ja": "おきなわワールド", "category_key": "tourism", "category_value": "museum"}, "geometry": {"type": "Point", "coordinates": [127.7490139, 26.1398284]}}, {"type": "Feature", "properties": {"osm_id": 1068015481, "osm_type": "node", "name": "宜野湾市立博物館", "name_ja": "宜野湾市立博物館", "category_key": "tourism", "category_value": "museum"}, "geometry": {"type": "Point", "coordinates": [127.7406824, 26.2697671]}}, {"type": "Feature", "properties": {"osm_id": 1068016179, "osm_type": "node", "name": "埋蔵文化財センター", "name_ja": "埋蔵文化財センター", "category_key": "tourism", "category_value": "museum"}, "geometry": {"type": "Point", "coordinates": [127.759853, 26.243348]}}, {"type": "Feature", "properties": {"osm_id": 1068017752, "osm_type": "node", "name": "うるま市立石川歴史民俗資料館", "name_ja": "うるま市立石川歴史民俗資料館", "category_key": "tourism", "category_value": "museum"}, "geometry": {"type": "Point", "coordinates": [127.825245, 26.421856]}}, {"type": "Feature", "properties": {"osm_id": 1068022281, "osm_type": "node", "name": "歴史民俗資料展示室", "name_ja": "歴史民俗資料展示室", "category_key": "tourism", "category_value": "museum"}, "geometry": {"type": "Point", "coordinates": [127.674345, 26.173732]}}, {"type": "Feature", "properties": {"osm_id": 1068022942, "osm_type": "node", "name": "喜宝院蒐集館", "name_ja": "喜宝院蒐集館", "category_key": "tourism", "category_value": "museum"}, "geometry": {"type": "Point", "coordinates": [124.0840538, 24.3317382]}}, {"type": "Feature", "properties": {"osm_id": 1068027240, "osm_type": "node", "name": "具志頭歴史民俗資料館", "name_ja": "具志頭歴史民俗資料館", "category_key": "tourism", "category_value": "museum"}, "geometry": {"type": "Point", "coordinates": [127.7435298, 26.1224789]}}, {"type": "Feature", "properties": {"osm_id": 1068028895, "osm_type": "node", "name": "国営沖縄記念公園海洋文化館", "name_ja": "国営沖縄記念公園海洋文化館", "category_key": "tourism", "category_value": "museum"}, "geometry": {"type": "Point", "coordinates": [127.8779987, 26.6903361]}}, {"type": "Feature", "properties": {"osm_id": 1068031054, "osm_type": "node", "name": "伊平屋村歴史民俗資料館", "name_ja": "伊平屋村歴史民俗資料館", "category_key": "tourism", "category_value": "museum"}, "geometry": {"type": "Point", "coordinates": [127.968827, 27.037203]}}, {"type": "Feature", "properties": {"osm_id": 1068031771, "osm_type": "node", "name": "浦添市美術館", "name_ja": "浦添市美術館", "category_key": "tourism", "category_value": "museum"}, "geometry": {"type": "Point", "coordinates": [127.719498, 26.250251]}}, {"type": "Feature", "properties": {"osm_id": 1068032145, "osm_type": "node", "name": "東村立山と水の生活博物館", "name_ja": "東村立山と水の生活博物館", "category_key": "tourism", "category_value": "museum"}, "geometry": {"type": "Point", "coordinates": [128.1672775, 26.6410753]}}, {"type": "Feature", "properties": {"osm_id": 1068035371, "osm_type": "node", "name": "宮古島市総合博物館", "name_ja": "宮古島市総合博物館", "category_key": "tourism", "category_value": "museum"}, "geometry": {"type": "Point", "coordinates": [125.317688, 24.796933]}}, {"type": "Feature", "properties": {"osm_id": 1068038865, "osm_type": "node", "name": "うるま市立海の文化資料館", "name_ja": "うるま市立海の文化資料館", "category_key": "tourism", "category_value": "museum"}, "geometry": {"type": "Point", "coordinates": [127.9290696, 26.3325587]}}, {"type": "Feature", "properties": {"osm_id": 1068039374, "osm_type": "node", "name": "アヤミハビル館", "name_ja": "アヤミハビル館", "category_key": "tourism", "category_value": "museum"}, "geometry": {"type": "Point", "coordinates": [123.0106764, 24.4564542]}}, {"type": "Feature", "properties": {"osm_id": 1068041707, "osm_type": "node", "name": "諸見民芸館", "name_ja": "諸見民芸館", "category_key": "tourism", "category_value": "museum"}, "geometry": {"type": "Point", "coordinates": [127.7919502, 26.3274125]}}, {"type": "Feature", "properties": {"osm_id": 1068042376, "osm_type": "node", "name": "東風平歴史民俗資料館", "name_ja": "東風平歴史民俗資料館", "category_key": "tourism", "category_value": "museum"}, "geometry": {"type": "Point", "coordinates": [127.715097, 26.150696]}}, {"type": "Feature", "properties": {"osm_id": 1068043305, "osm_type": "node", "name": "首里城公園", "name_ja": "首里城公園", "category_key": "tourism", "category_value": "museum"}, "geometry": {"type": "Point", "coordinates": [127.7161664, 26.2179809]}}, {"type": "Feature", "properties": {"osm_id": 1069536940, "osm_type": "node", "name": "今川宝珠殿", "name_ja": null, "category_key": "tourism", "category_value": "museum"}, "geometry": {"type": "Point", "coordinates": [139.607, 35.7164045]}}, {"type": "Feature", "properties": {"osm_id": 1095260805, "osm_type": "node", "name": "日本スキー博物館", "name_ja": null, "category_key": "tourism", "category_value": "museum"}, "geometry": {"type": "Point", "coordinates": [138.4538638, 36.9263322]}}, {"type": "Feature", "properties": {"osm_id": 1099877845, "osm_type": "node", "name": "紫雲出山遺跡館", "name_ja": null, "category_key": "tourism", "category_value": "museum"}, "geometry": {"type": "Point", "coordinates": [133.596252, 34.2437731]}}, {"type": "Feature", "properties": {"osm_id": 1105754570, "osm_type": "node", "name": "内原郷土史義勇軍資料館", "name_ja": null, "category_key": "tourism", "category_value": "museum"}, "geometry": {"type": "Point", "coordinates": [140.3592573, 36.3600264]}}, {"type": "Feature", "properties": {"osm_id": 1127676921, "osm_type": "node", "name": "釜石市立鉄の歴史館", "name_ja": null, "category_key": "tourism", "category_value": "museum"}, "geometry": {"type": "Point", "coordinates": [141.8940577, 39.2554974]}}, {"type": "Feature", "properties": {"osm_id": 1154159628, "osm_type": "node", "name": "シャープ歴史・技術ホール天理", "name_ja": "シャープ歴史・技術ホール天理", "category_key": "tourism", "category_value": "museum"}, "geometry": {"type": "Point", "coordinates": [135.842701, 34.6201349]}}, {"type": "Feature", "properties": {"osm_id": 1164679735, "osm_type": "node", "name": "葛城の道歴史文化館", "name_ja": null, "category_key": "tourism", "category_value": "museum"}, "geometry": {"type": "Point", "coordinates": [135.7071225, 34.4078479]}}, {"type": "Feature", "properties": {"osm_id": 1166402855, "osm_type": "node", "name": "茨城自然博物館", "name_ja": null, "category_key": "tourism", "category_value": "museum"}, "geometry": {"type": "Point", "coordinates": [139.9162248, 36.0052666]}}, {"type": "Feature", "properties": {"osm_id": 1177156758, "osm_type": "node", "name": "NHKスタジオパーク", "name_ja": "NHKスタジオパーク", "category_key": "tourism", "category_value": "museum"}, "geometry": {"type": "Point", "coordinates": [139.6965929, 35.6651148]}}, {"type": "Feature", "properties": {"osm_id": 1180840647, "osm_type": "node", "name": "京都市立考古資料館", "name_ja": null, "category_key": "tourism", "category_value": "museum"}, "geometry": {"type": "Point", "coordinates": [135.7496545, 35.0299042]}}, {"type": "Feature", "properties": {"osm_id": 1186812671, "osm_type": "node", "name": "頼山陽史跡資料館", "name_ja": "頼山陽史跡資料館", "category_key": "tourism", "category_value": "museum"}, "geometry": {"type": "Point", "coordinates": [132.4572436, 34.3913824]}}, {"type": "Feature", "properties": {"osm_id": 1205775433, "osm_type": "node", "name": "太宰府市文化ふれあい館", "name_ja": null, "category_key": "tourism", "category_value": "museum"}, "geometry": {"type": "Point", "coordinates": [130.5095003, 33.5202557]}}, {"type": "Feature", "properties": {"osm_id": 1217256687, "osm_type": "node", "name": "石ノ森萬画館", "name_ja": "石ノ森萬画館", "category_key": "tourism", "category_value": "museum"}, "geometry": {"type": "Point", "coordinates": [141.3107621, 38.4295754]}}, {"type": "Feature", "properties": {"osm_id": 1248297444, "osm_type": "node", "name": "Zemaitis Museum", "name_ja": null, "category_key": "tourism", "category_value": "museum"}, "geometry": {"type": "Point", "coordinates": [139.7716325, 35.6937575]}}, {"type": "Feature", "properties": {"osm_id": 1275806523, "osm_type": "node", "name": "中部電力浜岡原子力館", "name_ja": null, "category_key": "tourism", "category_value": "museum"}, "geometry": {"type": "Point", "coordinates": [138.1414807, 34.628948]}}, {"type": "Feature", "properties": {"osm_id": 1281006509, "osm_type": "node", "name": "気仙大工左官伝承館", "name_ja": "気仙大工左官伝承館", "category_key": "tourism", "category_value": "museum"}, "geometry": {"type": "Point", "coordinates": [141.6921905, 39.010801]}}, {"type": "Feature", "properties": {"osm_id": 1292507798, "osm_type": "node", "name": "料金所", "name_ja": null, "category_key": "tourism", "category_value": "museum"}, "geometry": {"type": "Point", "coordinates": [131.3837448, 34.4173435]}}, {"type": "Feature", "properties": {"osm_id": 1302700215, "osm_type": "node", "name": "松戸市立博物館", "name_ja": null, "category_key": "tourism", "category_value": "museum"}, "geometry": {"type": "Point", "coordinates": [139.9395298, 35.8009982]}}, {"type": "Feature", "properties": {"osm_id": 1308488435, "osm_type": "node", "name": "イサム・ノグチ庭園美術館 (Isamu Noguchi Garden Museum)", "name_ja": null, "category_key": "tourism", "category_value": "museum"}, "geometry": {"type": "Point", "coordinates": [134.1250669, 34.3549874]}}, {"type": "Feature", "properties": {"osm_id": 1309677433, "osm_type": "node", "name": "仙巌園（磯庭園）", "name_ja": "仙巌園", "category_key": "tourism", "category_value": "museum"}, "geometry": {"type": "Point", "coordinates": [130.5803724, 31.6183873]}}, {"type": "Feature", "properties": {"osm_id": 1309807499, "osm_type": "node", "name": "中川村文化会館", "name_ja": null, "category_key": "tourism", "category_value": "museum"}, "geometry": {"type": "Point", "coordinates": [137.9341216, 35.631884]}}, {"type": "Feature", "properties": {"osm_id": 1313804244, "osm_type": "node", "name": "岩崎城歴史記念館", "name_ja": null, "category_key": "tourism", "category_value": "museum"}, "geometry": {"type": "Point", "coordinates": [137.0421262, 35.1453932]}}, {"type": "Feature", "properties": {"osm_id": 1313821699, "osm_type": "node", "name": "バラクライングリッシュガーデン", "name_ja": null, "category_key": "tourism", "category_value": "museum"}, "geometry": {"type": "Point", "coordinates": [138.2403698, 36.0362933]}}, {"type": "Feature", "properties": {"osm_id": 1319911990, "osm_type": "node", "name": "長久手市郷土資料室", "name_ja": null, "category_key": "tourism", "category_value": "museum"}, "geometry": {"type": "Point", "coordinates": [137.0484666, 35.1732378]}}, {"type": "Feature", "properties": {"osm_id": 1345506156, "osm_type": "node", "name": "津具文化資料展示センター", "name_ja": null, "category_key": "tourism", "category_value": "museum"}, "geometry": {"type": "Point", "coordinates": [137.6282419, 35.162208]}}, {"type": "Feature", "properties": {"osm_id": 1350269516, "osm_type": "node", "name": "日本銀行金融研究所貨幣博物館", "name_ja": null, "category_key": "tourism", "category_value": "museum"}, "geometry": {"type": "Point", "coordinates": [139.7716029, 35.6854395]}}, {"type": "Feature", "properties": {"osm_id": 1370878571, "osm_type": "node", "name": "資料館", "name_ja": null, "category_key": "tourism", "category_value": "museum"}, "geometry": {"type": "Point", "coordinates": [138.8624413, 35.3567622]}}, {"type": "Feature", "properties": {"osm_id": 1375543445, "osm_type": "node", "name": "現代美術館", "name_ja": "広島市現代美術館", "category_key": "tourism", "category_value": "museum"}, "geometry": {"type": "Point", "coordinates": [132.4733314, 34.386388]}}, {"type": "Feature", "properties": {"osm_id": 1389208431, "osm_type": "node", "name": "ハーモ美術館", "name_ja": null, "category_key": "tourism", "category_value": "museum"}, "geometry": {"type": "Point", "coordinates": [138.088182, 36.0652481]}}, {"type": "Feature", "properties": {"osm_id": 1399777201, "osm_type": "node", "name": "新津 石油の世界館", "name_ja": null, "category_key": "tourism", "category_value": "museum"}, "geometry": {"type": "Point", "coordinates": [139.1134721, 37.749887]}}, {"type": "Feature", "properties": {"osm_id": 1399900920, "osm_type": "node", "name": "中野邸美術館", "name_ja": null, "category_key": "tourism", "category_value": "museum"}, "geometry": {"type": "Point", "coordinates": [139.1146013, 37.7498912]}}, {"type": "Feature", "properties": {"osm_id": 1400418448, "osm_type": "node", "name": "黒部川電気記念館", "name_ja": null, "category_key": "tourism", "category_value": "museum"}, "geometry": {"type": "Point", "coordinates": [137.5857112, 36.8147742]}}, {"type": "Feature", "properties": {"osm_id": 1400440111, "osm_type": "node", "name": "宇奈月ダム情報資料館", "name_ja": null, "category_key": "tourism", "category_value": "museum"}, "geometry": {"type": "Point", "coordinates": [137.5915374, 36.8096586]}}, {"type": "Feature", "properties": {"osm_id": 1420166450, "osm_type": "node", "name": "さいたま市立浦和博物館", "name_ja": null, "category_key": "tourism", "category_value": "museum"}, "geometry": {"type": "Point", "coordinates": [139.6775853, 35.8905077]}}, {"type": "Feature", "properties": {"osm_id": 1420166452, "osm_type": "node", "name": "さいたま市立漫画会館", "name_ja": "さいたま市立漫画会館", "category_key": "tourism", "category_value": "museum"}, "geometry": {"type": "Point", "coordinates": [139.63181, 35.925637]}}, {"type": "Feature", "properties": {"osm_id": 1420166469, "osm_type": "node", "name": "さいたま市青少年宇宙科学館", "name_ja": null, "category_key": "tourism", "category_value": "museum"}, "geometry": {"type": "Point", "coordinates": [139.664578, 35.872345]}}, {"type": "Feature", "properties": {"osm_id": 1420166470, "osm_type": "node", "name": "さいたま文学館", "name_ja": null, "category_key": "tourism", "category_value": "museum"}, "geometry": {"type": "Point", "coordinates": [139.560588, 35.996112]}}, {"type": "Feature", "properties": {"osm_id": 1420167016, "osm_type": "node", "name": "ふじみ野市立上福岡歴史民俗資料館", "name_ja": null, "category_key": "tourism", "category_value": "museum"}, "geometry": {"type": "Point", "coordinates": [139.528261, 35.875723]}}, {"type": "Feature", "properties": {"osm_id": 1420167334, "osm_type": "node", "name": "三芳町立歴史民俗資料館", "name_ja": null, "category_key": "tourism", "category_value": "museum"}, "geometry": {"type": "Point", "coordinates": [139.547607, 35.82344]}}, {"type": "Feature", "properties": {"osm_id": 1420168096, "osm_type": "node", "name": "上里町立図書館・郷土資料館", "name_ja": null, "category_key": "tourism", "category_value": "museum"}, "geometry": {"type": "Point", "coordinates": [139.141, 36.252372]}}, {"type": "Feature", "properties": {"osm_id": 1420170528, "osm_type": "node", "name": "埼玉県立歴史資料館", "name_ja": null, "category_key": "tourism", "category_value": "museum"}, "geometry": {"type": "Point", "coordinates": [139.323435, 36.03682]}}, {"type": "Feature", "properties": {"osm_id": 1420170558, "osm_type": "node", "name": "埼玉県立近代美術館", "name_ja": null, "category_key": "tourism", "category_value": "museum"}, "geometry": {"type": "Point", "coordinates": [139.643019, 35.869598]}}, {"type": "Feature", "properties": {"osm_id": 1420171057, "osm_type": "node", "name": "宮代町郷土資料館", "name_ja": null, "category_key": "tourism", "category_value": "museum"}, "geometry": {"type": "Point", "coordinates": [139.725492, 36.009125]}}, {"type": "Feature", "properties": {"osm_id": 1420171658, "osm_type": "node", "name": "川口市立科学館 (Kawaguchi Science Museum)", "name_ja": "川口市立科学館", "category_key": "tourism", "category_value": "museum"}, "geometry": {"type": "Point", "coordinates": [139.7198599, 35.8276765]}}, {"type": "Feature", "properties": {"osm_id": 1420171772, "osm_type": "node", "name": "川越城本丸御殿", "name_ja": null, "category_key": "tourism", "category_value": "museum"}, "geometry": {"type": "Point", "coordinates": [139.4914968, 35.9245029]}}, {"type": "Feature", "properties": {"osm_id": 1420178727, "osm_type": "node", "name": "志木市立郷土資料館", "name_ja": null, "category_key": "tourism", "category_value": "museum"}, "geometry": {"type": "Point", "coordinates": [139.589273, 35.839258]}}, {"type": "Feature", "properties": {"osm_id": 1420178896, "osm_type": "node", "name": "戸田市立郷土博物館", "name_ja": null, "category_key": "tourism", "category_value": "museum"}, "geometry": {"type": "Point", "coordinates": [139.663382, 35.819106]}}, {"type": "Feature", "properties": {"osm_id": 1420179199, "osm_type": "node", "name": "旧島田家住宅", "name_ja": null, "category_key": "tourism", "category_value": "museum"}, "geometry": {"type": "Point", "coordinates": [139.502228, 35.830513]}}, {"type": "Feature", "properties": {"osm_id": 1420179429, "osm_type": "node", "name": "朝霞市博物館", "name_ja": null, "category_key": "tourism", "category_value": "museum"}, "geometry": {"type": "Point", "coordinates": [139.597387, 35.812689]}}, {"type": "Feature", "properties": {"osm_id": 1420179789, "osm_type": "node", "name": "桶川市歴史民俗資料館", "name_ja": null, "category_key": "tourism", "category_value": "museum"}, "geometry": {"type": "Point", "coordinates": [139.526644, 35.994111]}}, {"type": "Feature", "properties": {"osm_id": 1420179831, "osm_type": "node", "name": "横瀬町歴史民俗資料館", "name_ja": null, "category_key": "tourism", "category_value": "museum"}, "geometry": {"type": "Point", "coordinates": [139.1030298, 35.9870796]}}, {"type": "Feature", "properties": {"osm_id": 1420179896, "osm_type": "node", "name": "毛呂山町歴史民俗資料館", "name_ja": null, "category_key": "tourism", "category_value": "museum"}, "geometry": {"type": "Point", "coordinates": [139.346492, 35.955857]}}, {"type": "Feature", "properties": {"osm_id": 1420179949, "osm_type": "node", "name": "河鍋暁斎記念美術館", "name_ja": null, "category_key": "tourism", "category_value": "museum"}, "geometry": {"type": "Point", "coordinates": [139.693476, 35.8157897]}}, {"type": "Feature", "properties": {"osm_id": 1420184110, "osm_type": "node", "name": "秩父市立大滝歴史民俗資料館", "name_ja": "秩父市立大滝歴史民俗資料館", "category_key": "tourism", "category_value": "museum"}, "geometry": {"type": "Point", "coordinates": [138.9379012, 35.9501096]}}, {"type": "Feature", "properties": {"osm_id": 1420184440, "osm_type": "node", "name": "笛畝人形記念美術館", "name_ja": null, "category_key": "tourism", "category_value": "museum"}, "geometry": {"type": "Point", "coordinates": [139.274752, 35.971997]}}, {"type": "Feature", "properties": {"osm_id": 1420185252, "osm_type": "node", "name": "蓮田市郷土資料館", "name_ja": null, "category_key": "tourism", "category_value": "museum"}, "geometry": {"type": "Point", "coordinates": [139.631091, 36.021965]}}, {"type": "Feature", "properties": {"osm_id": 1420185498, "osm_type": "node", "name": "行田市埋蔵文化財センター", "name_ja": null, "category_key": "tourism", "category_value": "museum"}, "geometry": {"type": "Point", "coordinates": [139.468334, 36.127675]}}, {"type": "Feature", "properties": {"osm_id": 1420186367, "osm_type": "node", "name": "久喜市立鷲宮郷土資料館", "name_ja": null, "category_key": "tourism", "category_value": "museum"}, "geometry": {"type": "Point", "coordinates": [139.6653772, 36.0994197]}}, {"type": "Feature", "properties": {"osm_id": 1420188908, "osm_type": "node", "name": "うらわ美術館", "name_ja": null, "category_key": "tourism", "category_value": "museum"}, "geometry": {"type": "Point", "coordinates": [139.65262, 35.860635]}}, {"type": "Feature", "properties": {"osm_id": 1420189520, "osm_type": "node", "name": "ふじみ野市立大井郷土資料館", "name_ja": null, "category_key": "tourism", "category_value": "museum"}, "geometry": {"type": "Point", "coordinates": [139.504766, 35.857527]}}, {"type": "Feature", "properties": {"osm_id": 1420189522, "osm_type": "node", "name": "ふじみ野市立福岡河岸記念館", "name_ja": null, "category_key": "tourism", "category_value": "museum"}, "geometry": {"type": "Point", "coordinates": [139.522855, 35.885291]}}, {"type": "Feature", "properties": {"osm_id": 1420189922, "osm_type": "node", "name": "サトエ記念２１世紀美術館", "name_ja": null, "category_key": "tourism", "category_value": "museum"}, "geometry": {"type": "Point", "coordinates": [139.640496, 36.100139]}}, {"type": "Feature", "properties": {"osm_id": 1420190894, "osm_type": "node", "name": "八潮市立資料館", "name_ja": null, "category_key": "tourism", "category_value": "museum"}, "geometry": {"type": "Point", "coordinates": [139.820914, 35.826432]}}, {"type": "Feature", "properties": {"osm_id": 1420191356, "osm_type": "node", "name": "原爆の図丸木美術館", "name_ja": null, "category_key": "tourism", "category_value": "museum"}, "geometry": {"type": "Point", "coordinates": [139.352239, 36.028182]}}, {"type": "Feature", "properties": {"osm_id": 1420191471, "osm_type": "node", "name": "吉見町埋蔵文化財センター", "name_ja": null, "category_key": "tourism", "category_value": "museum"}, "geometry": {"type": "Point", "coordinates": [139.421208, 36.039123]}}, {"type": "Feature", "properties": {"osm_id": 1420192352, "osm_type": "node", "name": "埼玉県立さきたま史跡の博物館", "name_ja": null, "category_key": "tourism", "category_value": "museum"}, "geometry": {"type": "Point", "coordinates": [139.4756819, 36.125121]}}, {"type": "Feature", "properties": {"osm_id": 1420192397, "osm_type": "node", "name": "埼玉県立自然の博物館", "name_ja": null, "category_key": "tourism", "category_value": "museum"}, "geometry": {"type": "Point", "coordinates": [139.1159825, 36.0874899]}}, {"type": "Feature", "properties": {"osm_id": 1420192658, "osm_type": "node", "name": "宮代町郷土資料館", "name_ja": null, "category_key": "tourism", "category_value": "museum"}, "geometry": {"type": "Point", "coordinates": [139.725492, 36.009125]}}, {"type": "Feature", "properties": {"osm_id": 1420192764, "osm_type": "node", "name": "小川和紙資料館", "name_ja": null, "category_key": "tourism", "category_value": "museum"}, "geometry": {"type": "Point", "coordinates": [139.2691805, 36.0500202]}}, {"type": "Feature", "properties": {"osm_id": 1420192853, "osm_type": "node", "name": "山崎美術館", "name_ja": null, "category_key": "tourism", "category_value": "museum"}, "geometry": {"type": "Point", "coordinates": [139.4829939, 35.9212192]}}, {"type": "Feature", "properties": {"osm_id": 1420193131, "osm_type": "node", "name": "川越まつり会館", "name_ja": null, "category_key": "tourism", "category_value": "museum"}, "geometry": {"type": "Point", "coordinates": [139.48248, 35.9243784]}}, {"type": "Feature", "properties": {"osm_id": 1420193190, "osm_type": "node", "name": "川越市蔵造り資料館", "name_ja": null, "category_key": "tourism", "category_value": "museum"}, "geometry": {"type": "Point", "coordinates": [139.4828468, 35.9237132]}}, {"type": "Feature", "properties": {"osm_id": 1420193239, "osm_type": "node", "name": "川里郷土資料館", "name_ja": null, "category_key": "tourism", "category_value": "museum"}, "geometry": {"type": "Point", "coordinates": [139.526449, 36.091155]}}, {"type": "Feature", "properties": {"osm_id": 1420195863, "osm_type": "node", "name": "慈光寺宝物殿", "name_ja": null, "category_key": "tourism", "category_value": "museum"}, "geometry": {"type": "Point", "coordinates": [139.231611, 36.011429]}}, {"type": "Feature", "properties": {"osm_id": 1420196695, "osm_type": "node", "name": "新座市立歴史民俗資料館", "name_ja": null, "category_key": "tourism", "category_value": "museum"}, "geometry": {"type": "Point", "coordinates": [139.5623274, 35.7692219]}}, {"type": "Feature", "properties": {"osm_id": 1420196878, "osm_type": "node", "name": "旧坂東家住宅見沼くらしっく館", "name_ja": null, "category_key": "tourism", "category_value": "museum"}, "geometry": {"type": "Point", "coordinates": [139.690812, 35.9062357]}}, {"type": "Feature", "properties": {"osm_id": 1420197078, "osm_type": "node", "name": "春日部市郷土資料館", "name_ja": null, "category_key": "tourism", "category_value": "museum"}, "geometry": {"type": "Point", "coordinates": [139.759038, 35.979394]}}, {"type": "Feature", "properties": {"osm_id": 1420197404, "osm_type": "node", "name": "本庄市立歴史民俗資料館", "name_ja": null, "category_key": "tourism", "category_value": "museum"}, "geometry": {"type": "Point", "coordinates": [139.1848101, 36.241872]}}, {"type": "Feature", "properties": {"osm_id": 1420198467, "osm_type": "node", "name": "河鍋暁斎記念美術館", "name_ja": null, "category_key": "tourism", "category_value": "museum"}, "geometry": {"type": "Point", "coordinates": [139.6934049, 35.8158397]}}, {"type": "Feature", "properties": {"osm_id": 1420198486, "osm_type": "node", "name": "浦和くらしの博物館民家園", "name_ja": null, "category_key": "tourism", "category_value": "museum"}, "geometry": {"type": "Point", "coordinates": [139.710617, 35.878354]}}, {"type": "Feature", "properties": {"osm_id": 1420198853, "osm_type": "node", "name": "滑川町エコミュージアムセンター", "name_ja": null, "category_key": "tourism", "category_value": "museum"}, "geometry": {"type": "Point", "coordinates": [139.3636445, 36.0664941]}}, {"type": "Feature", "properties": {"osm_id": 1420198974, "osm_type": "node", "name": "熊谷市立図書館美術・郷土資料展示室", "name_ja": null, "category_key": "tourism", "category_value": "museum"}, "geometry": {"type": "Point", "coordinates": [139.3868362, 36.1371335]}}, {"type": "Feature", "properties": {"osm_id": 1420199199, "osm_type": "node", "name": "獅子博物館", "name_ja": null, "category_key": "tourism", "category_value": "museum"}, "geometry": {"type": "Point", "coordinates": [139.667487, 36.020254]}}, {"type": "Feature", "properties": {"osm_id": 1420200158, "osm_type": "node", "name": "白雲山鳥居文庫", "name_ja": "白雲山鳥居文庫", "category_key": "tourism", "category_value": "museum"}, "geometry": {"type": "Point", "coordinates": [139.182825, 35.879651]}}, {"type": "Feature", "properties": {"osm_id": 1420202180, "osm_type": "node", "name": "秩父まつり会館", "name_ja": "秩父まつり会館", "category_key": "tourism", "category_value": "museum"}, "geometry": {"type": "Point", "coordinates": [139.0852719, 35.997213]}}, {"type": "Feature", "properties": {"osm_id": 1420202218, "osm_type": "node", "name": "秩父市立荒川歴史民俗資料館", "name_ja": null, "category_key": "tourism", "category_value": "museum"}, "geometry": {"type": "Point", "coordinates": [139.0238614, 35.9549517]}}, {"type": "Feature", "properties": {"osm_id": 1420202247, "osm_type": "node", "name": "秩父美術館", "name_ja": "秩父美術館", "category_key": "tourism", "category_value": "museum"}, "geometry": {"type": "Point", "coordinates": [139.0836993, 36.0087193]}}, {"type": "Feature", "properties": {"osm_id": 1420202289, "osm_type": "node", "name": "秩父錦酒づくりの森酒蔵資料館", "name_ja": null, "category_key": "tourism", "category_value": "museum"}, "geometry": {"type": "Point", "coordinates": [139.0559, 35.986151]}}, {"type": "Feature", "properties": {"osm_id": 1420202296, "osm_type": "node", "name": "税務大学校租税史料館", "name_ja": null, "category_key": "tourism", "category_value": "museum"}, "geometry": {"type": "Point", "coordinates": [139.607558, 35.77552]}}, {"type": "Feature", "properties": {"osm_id": 1420202554, "osm_type": "node", "name": "郷土資料館", "name_ja": null, "category_key": "tourism", "category_value": "museum"}, "geometry": {"type": "Point", "coordinates": [139.548547, 36.1652766]}}, {"type": "Feature", "properties": {"osm_id": 1420202783, "osm_type": "node", "name": "草創庵博物館", "name_ja": null, "category_key": "tourism", "category_value": "museum"}, "geometry": {"type": "Point", "coordinates": [139.823127, 35.847857]}}, {"type": "Feature", "properties": {"osm_id": 1420203088, "osm_type": "node", "name": "蕨市立歴史民俗資料館", "name_ja": null, "category_key": "tourism", "category_value": "museum"}, "geometry": {"type": "Point", "coordinates": [139.678523, 35.824737]}}, {"type": "Feature", "properties": {"osm_id": 1420203267, "osm_type": "node", "name": "蘭山記念美術館", "name_ja": null, "category_key": "tourism", "category_value": "museum"}, "geometry": {"type": "Point", "coordinates": [139.4829049, 35.924615]}}, {"type": "Feature", "properties": {"osm_id": 1420203385, "osm_type": "node", "name": "行田市郷土博物館", "name_ja": null, "category_key": "tourism", "category_value": "museum"}, "geometry": {"type": "Point", "coordinates": [139.453279, 36.137865]}}, {"type": "Feature", "properties": {"osm_id": 1420203783, "osm_type": "node", "name": "跡見学園女子大学花蹊記念資料館", "name_ja": null, "category_key": "tourism", "category_value": "museum"}, "geometry": {"type": "Point", "coordinates": [139.5425767, 35.8170802]}}, {"type": "Feature", "properties": {"osm_id": 1420204037, "osm_type": "node", "name": "鉢形城歴史館", "name_ja": null, "category_key": "tourism", "category_value": "museum"}, "geometry": {"type": "Point", "coordinates": [139.1962834, 36.1065993]}}, {"type": "Feature", "properties": {"osm_id": 1420204131, "osm_type": "node", "name": "長瀞町郷土資料館", "name_ja": null, "category_key": "tourism", "category_value": "museum"}, "geometry": {"type": "Point", "coordinates": [139.1076023, 36.092405]}}, {"type": "Feature", "properties": {"osm_id": 1420204142, "osm_type": "node", "name": "長瀞綜合博物館", "name_ja": null, "category_key": "tourism", "category_value": "museum"}, "geometry": {"type": "Point", "coordinates": [139.1114217, 36.1083488]}}, {"type": "Feature", "properties": {"osm_id": 1420205478, "osm_type": "node", "name": "川口市立郷土資料館", "name_ja": null, "category_key": "tourism", "category_value": "museum"}, "geometry": {"type": "Point", "coordinates": [139.7404623, 35.8335586]}}, {"type": "Feature", "properties": {"osm_id": 1420708388, "osm_type": "node", "name": "あかりの資料館", "name_ja": null, "category_key": "tourism", "category_value": "museum"}, "geometry": {"type": "Point", "coordinates": [138.99854, 36.314027]}}, {"type": "Feature", "properties": {"osm_id": 1420708434, "osm_type": "node", "name": "ぐんま・竹と凧の博物館", "name_ja": null, "category_key": "tourism", "category_value": "museum"}, "geometry": {"type": "Point", "coordinates": [139.2921269, 36.4320571]}}, {"type": "Feature", "properties": {"osm_id": 1420708530, "osm_type": "node", "name": "コノドント館", "name_ja": null, "category_key": "tourism", "category_value": "museum"}, "geometry": {"type": "Point", "coordinates": [139.2746841, 36.4352743]}}, {"type": "Feature", "properties": {"osm_id": 1420708551, "osm_type": "node", "name": "みなかみ町月夜野郷土歴史資料館", "name_ja": null, "category_key": "tourism", "category_value": "museum"}, "geometry": {"type": "Point", "coordinates": [138.981165, 36.69502]}}, {"type": "Feature", "properties": {"osm_id": 1420708552, "osm_type": "node", "name": "みなかみ町水上歴史民俗資料館", "name_ja": null, "category_key": "tourism", "category_value": "museum"}, "geometry": {"type": "Point", "coordinates": [138.9684548, 36.7708613]}}, {"type": "Feature", "properties": {"osm_id": 1420709010, "osm_type": "node", "name": "ハラミュージアムアーク", "name_ja": null, "category_key": "tourism", "category_value": "museum"}, "geometry": {"type": "Point", "coordinates": [138.945564, 36.503176]}}, {"type": "Feature", "properties": {"osm_id": 1420709074, "osm_type": "node", "name": "下仁田町ふるさとセンター歴史民俗資料館", "name_ja": null, "category_key": "tourism", "category_value": "museum"}, "geometry": {"type": "Point", "coordinates": [138.779633, 36.218441]}}, {"type": "Feature", "properties": {"osm_id": 1420709087, "osm_type": "node", "name": "与謝野晶子紀行文学館", "name_ja": null, "category_key": "tourism", "category_value": "museum"}, "geometry": {"type": "Point", "coordinates": [138.8939508, 36.7303004]}}, {"type": "Feature", "properties": {"osm_id": 1420709099, "osm_type": "node", "name": "中之条町歴史民俗資料館", "name_ja": null, "category_key": "tourism", "category_value": "museum"}, "geometry": {"type": "Point", "coordinates": [138.8428986, 36.5893848]}}, {"type": "Feature", "properties": {"osm_id": 1420709202, "osm_type": "node", "name": "伊勢崎市赤堀歴史民俗資料館", "name_ja": null, "category_key": "tourism", "category_value": "museum"}, "geometry": {"type": "Point", "coordinates": [139.231815, 36.381064]}}, {"type": "Feature", "properties": {"osm_id": 1420709232, "osm_type": "node", "name": "伊香保御関所", "name_ja": null, "category_key": "tourism", "category_value": "museum"}, "geometry": {"type": "Point", "coordinates": [138.916419, 36.498536]}}, {"type": "Feature", "properties": {"osm_id": 1420709235, "osm_type": "node", "name": "伊香保美術館（旧保科美術館）", "name_ja": null, "category_key": "tourism", "category_value": "museum"}, "geometry": {"type": "Point", "coordinates": [138.922228, 36.502727]}}, {"type": "Feature", "properties": {"osm_id": 1420709528, "osm_type": "node", "name": "前橋市教育資料館", "name_ja": null, "category_key": "tourism", "category_value": "museum"}, "geometry": {"type": "Point", "coordinates": [139.0595354, 36.4026384]}}, {"type": "Feature", "properties": {"osm_id": 1420709532, "osm_type": "node", "name": "前橋市水道資料館", "name_ja": null, "category_key": "tourism", "category_value": "museum"}, "geometry": {"type": "Point", "coordinates": [139.0545097, 36.414795]}}, {"type": "Feature", "properties": {"osm_id": 1420709578, "osm_type": "node", "name": "前橋市粕川歴史民俗資料館", "name_ja": null, "category_key": "tourism", "category_value": "museum"}, "geometry": {"type": "Point", "coordinates": [139.2221387, 36.4220804]}}, {"type": "Feature", "properties": {"osm_id": 1420709652, "osm_type": "node", "name": "北群馬渋川郷土館", "name_ja": null, "category_key": "tourism", "category_value": "museum"}, "geometry": {"type": "Point", "coordinates": [138.959111, 36.46971]}}, {"type": "Feature", "properties": {"osm_id": 1420709676, "osm_type": "node", "name": "南牧村立山の美術館", "name_ja": null, "category_key": "tourism", "category_value": "museum"}, "geometry": {"type": "Point", "coordinates": [138.730907, 36.185009]}}, {"type": "Feature", "properties": {"osm_id": 1420709702, "osm_type": "node", "name": "吉井町郷土資料館", "name_ja": null, "category_key": "tourism", "category_value": "museum"}, "geometry": {"type": "Point", "coordinates": [138.9848567, 36.2534624]}}, {"type": "Feature", "properties": {"osm_id": 1420710142, "osm_type": "node", "name": "大川美術館", "name_ja": null, "category_key": "tourism", "category_value": "museum"}, "geometry": {"type": "Point", "coordinates": [139.333862, 36.416889]}}, {"type": "Feature", "properties": {"osm_id": 1420710244, "osm_type": "node", "name": "大泉町文化むら文化財展示室", "name_ja": null, "category_key": "tourism", "category_value": "museum"}, "geometry": {"type": "Point", "coordinates": [139.418487, 36.249669]}}, {"type": "Feature", "properties": {"osm_id": 1420710338, "osm_type": "node", "name": "太田市立藪塚本町歴史民俗資料館", "name_ja": null, "category_key": "tourism", "category_value": "museum"}, "geometry": {"type": "Point", "coordinates": [139.321742, 36.363422]}}, {"type": "Feature", "properties": {"osm_id": 1420710387, "osm_type": "node", "name": "奥利根民俗集古館", "name_ja": null, "category_key": "tourism", "category_value": "museum"}, "geometry": {"type": "Point", "coordinates": [139.057517, 36.8333286]}}, {"type": "Feature", "properties": {"osm_id": 1420710390, "osm_type": "node", "name": "妙義山麓美術館", "name_ja": null, "category_key": "tourism", "category_value": "museum"}, "geometry": {"type": "Point", "coordinates": [138.781781, 36.307195]}}, {"type": "Feature", "properties": {"osm_id": 1420710413, "osm_type": "node", "name": "安中市ふるさと学習館", "name_ja": null, "category_key": "tourism", "category_value": "museum"}, "geometry": {"type": "Point", "coordinates": [138.8942461, 36.291741]}}, {"type": "Feature", "properties": {"osm_id": 1420710431, "osm_type": "node", "name": "安中市資料館", "name_ja": null, "category_key": "tourism", "category_value": "museum"}, "geometry": {"type": "Point", "coordinates": [138.8597587, 36.3532005]}}, {"type": "Feature", "properties": {"osm_id": 1420710521, "osm_type": "node", "name": "富岡市立妙義ふるさと美術館", "name_ja": null, "category_key": "tourism", "category_value": "museum"}, "geometry": {"type": "Point", "coordinates": [138.765613, 36.297989]}}, {"type": "Feature", "properties": {"osm_id": 1420710523, "osm_type": "node", "name": "富岡市立岡部温故館", "name_ja": null, "category_key": "tourism", "category_value": "museum"}, "geometry": {"type": "Point", "coordinates": [138.816613, 36.270227]}}, {"type": "Feature", "properties": {"osm_id": 1420710552, "osm_type": "node", "name": "富弘美術館", "name_ja": null, "category_key": "tourism", "category_value": "museum"}, "geometry": {"type": "Point", "coordinates": [139.3729756, 36.5535096]}}, {"type": "Feature", "properties": {"osm_id": 1420710575, "osm_type": "node", "name": "山徳記念館", "name_ja": null, "category_key": "tourism", "category_value": "museum"}, "geometry": {"type": "Point", "coordinates": [138.988606, 36.305648]}}, {"type": "Feature", "properties": {"osm_id": 1420710585, "osm_type": "node", "name": "岩宿博物館", "name_ja": null, "category_key": "tourism", "category_value": "museum"}, "geometry": {"type": "Point", "coordinates": [139.2856885, 36.3991379]}}, {"type": "Feature", "properties": {"osm_id": 1420710621, "osm_type": "node", "name": "川場村歴史民俗資料館", "name_ja": null, "category_key": "tourism", "category_value": "museum"}, "geometry": {"type": "Point", "coordinates": [139.105415, 36.693029]}}, {"type": "Feature", "properties": {"osm_id": 1420711179, "osm_type": "node", "name": "徳冨蘆花記念文学館", "name_ja": null, "category_key": "tourism", "category_value": "museum"}, "geometry": {"type": "Point", "coordinates": [138.915858, 36.499199]}}, {"type": "Feature", "properties": {"osm_id": 1420711331, "osm_type": "node", "name": "製粉ミュージアム", "name_ja": null, "category_key": "tourism", "category_value": "museum"}, "geometry": {"type": "Point", "coordinates": [139.525805, 36.245599]}}, {"type": "Feature", "properties": {"osm_id": 1420711919, "osm_type": "node", "name": "榛東村耳飾り館", "name_ja": null, "category_key": "tourism", "category_value": "museum"}, "geometry": {"type": "Point", "coordinates": [138.969837, 36.45025]}}, {"type": "Feature", "properties": {"osm_id": 1420711983, "osm_type": "node", "name": "水と緑と詩のまち前橋文学館", "name_ja": null, "category_key": "tourism", "category_value": "museum"}, "geometry": {"type": "Point", "coordinates": [139.072229, 36.393897]}}, {"type": "Feature", "properties": {"osm_id": 1420712255, "osm_type": "node", "name": "渋川市北橘歴史資料館", "name_ja": null, "category_key": "tourism", "category_value": "museum"}, "geometry": {"type": "Point", "coordinates": [139.033272, 36.480064]}}, {"type": "Feature", "properties": {"osm_id": 1420712325, "osm_type": "node", "name": "玉村町歴史資料館", "name_ja": null, "category_key": "tourism", "category_value": "museum"}, "geometry": {"type": "Point", "coordinates": [139.1226364, 36.3056392]}}, {"type": "Feature", "properties": {"osm_id": 1420712341, "osm_type": "node", "name": "甘楽古代館", "name_ja": null, "category_key": "tourism", "category_value": "museum"}, "geometry": {"type": "Point", "coordinates": [138.936862, 36.2422872]}}, {"type": "Feature", "properties": {"osm_id": 1420712477, "osm_type": "node", "name": "相川考古館", "name_ja": null, "category_key": "tourism", "category_value": "museum"}, "geometry": {"type": "Point", "coordinates": [139.191295, 36.318562]}}, {"type": "Feature", "properties": {"osm_id": 1420712695, "osm_type": "node", "name": "神流町恐竜センター", "name_ja": null, "category_key": "tourism", "category_value": "museum"}, "geometry": {"type": "Point", "coordinates": [138.820823, 36.091996]}}, {"type": "Feature", "properties": {"osm_id": 1420712704, "osm_type": "node", "name": "福沢一郎記念館", "name_ja": null, "category_key": "tourism", "category_value": "museum"}, "geometry": {"type": "Point", "coordinates": [138.968475, 36.447864]}}, {"type": "Feature", "properties": {"osm_id": 1420712842, "osm_type": "node", "name": "童謡ふるさと館", "name_ja": null, "category_key": "tourism", "category_value": "museum"}, "geometry": {"type": "Point", "coordinates": [139.371862, 36.536917]}}, {"type": "Feature", "properties": {"osm_id": 1420712843, "osm_type": "node", "name": "竹久夢二伊香保記念館", "name_ja": null, "category_key": "tourism", "category_value": "museum"}, "geometry": {"type": "Point", "coordinates": [138.92689, 36.500042]}}, {"type": "Feature", "properties": {"osm_id": 1420713152, "osm_type": "node", "name": "織物参考館“紫”", "name_ja": null, "category_key": "tourism", "category_value": "museum"}, "geometry": {"type": "Point", "coordinates": [139.344711, 36.4103]}}, {"type": "Feature", "properties": {"osm_id": 1420713224, "osm_type": "node", "name": "群馬県生涯学習センター少年科学館", "name_ja": null, "category_key": "tourism", "category_value": "museum"}, "geometry": {"type": "Point", "coordinates": [139.0831271, 36.3780698]}}, {"type": "Feature", "properties": {"osm_id": 1420713230, "osm_type": "node", "name": "群馬県立土屋文明記念文学館", "name_ja": null, "category_key": "tourism", "category_value": "museum"}, "geometry": {"type": "Point", "coordinates": [138.98537, 36.382219]}}, {"type": "Feature", "properties": {"osm_id": 1420713235, "osm_type": "node", "name": "群馬県立日本絹の里", "name_ja": null, "category_key": "tourism", "category_value": "museum"}, "geometry": {"type": "Point", "coordinates": [138.989766, 36.407157]}}, {"type": "Feature", "properties": {"osm_id": 1420713236, "osm_type": "node", "name": "群馬県立歴史博物館", "name_ja": null, "category_key": "tourism", "category_value": "museum"}, "geometry": {"type": "Point", "coordinates": [139.079476, 36.29859]}}, {"type": "Feature", "properties": {"osm_id": 1420713267, "osm_type": "node", "name": "群馬県立近代美術館", "name_ja": null, "category_key": "tourism", "category_value": "museum"}, "geometry": {"type": "Point", "coordinates": [139.0783112, 36.298741]}}, {"type": "Feature", "properties": {"osm_id": 1420713361, "osm_type": "node", "name": "群馬郷土美術館", "name_ja": null, "category_key": "tourism", "category_value": "museum"}, "geometry": {"type": "Point", "coordinates": [139.112238, 36.355749]}}, {"type": "Feature", "properties": {"osm_id": 1420713792, "osm_type": "node", "name": "赤城歴史資料館", "name_ja": null, "category_key": "tourism", "category_value": "museum"}, "geometry": {"type": "Point", "coordinates": [139.043644, 36.521162]}}, {"type": "Feature", "properties": {"osm_id": 1420713900, "osm_type": "node", "name": "関口コオきり絵美術館", "name_ja": null, "category_key": "tourism", "category_value": "museum"}, "geometry": {"type": "Point", "coordinates": [139.040003, 36.649423]}}, {"type": "Feature", "properties": {"osm_id": 1420714045, "osm_type": "node", "name": "雲越家住宅資料館", "name_ja": null, "category_key": "tourism", "category_value": "museum"}, "geometry": {"type": "Point", "coordinates": [139.06965, 36.838323]}}, {"type": "Feature", "properties": {"osm_id": 1420714131, "osm_type": "node", "name": "高山彦九郎記念館", "name_ja": null, "category_key": "tourism", "category_value": "museum"}, "geometry": {"type": "Point", "coordinates": [139.347045, 36.276419]}}, {"type": "Feature", "properties": {"osm_id": 1420714321, "osm_type": "node", "name": "高崎市タワー美術館", "name_ja": null, "category_key": "tourism", "category_value": "museum"}, "geometry": {"type": "Point", "coordinates": [139.0151829, 36.3224609]}}, {"type": "Feature", "properties": {"osm_id": 1420714404, "osm_type": "node", "name": "高崎市染料植物園", "name_ja": null, "category_key": "tourism", "category_value": "museum"}, "geometry": {"type": "Point", "coordinates": [138.981403, 36.305573]}}, {"type": "Feature", "properties": {"osm_id": 1420714405, "osm_type": "node", "name": "高崎市歴史民俗資料館", "name_ja": null, "category_key": "tourism", "category_value": "museum"}, "geometry": {"type": "Point", "coordinates": [139.069689, 36.321129]}}, {"type": "Feature", "properties": {"osm_id": 1420714406, "osm_type": "node", "name": "高崎市水道記念館", "name_ja": null, "category_key": "tourism", "category_value": "museum"}, "geometry": {"type": "Point", "coordinates": [138.9414694, 36.347157]}}, {"type": "Feature", "properties": {"osm_id": 1420721994, "osm_type": "node", "name": "いすみ市郷土資料館（田園の美術館）", "name_ja": null, "category_key": "tourism", "category_value": "museum"}, "geometry": {"type": "Point", "coordinates": [140.308869, 35.285242]}}, {"type": "Feature", "properties": {"osm_id": 1420722835, "osm_type": "node", "name": "ふなばしアンゼルセン公園子ども美術館", "name_ja": "ふなばしアンデルセン公園子ども美術館", "category_key": "tourism", "category_value": "museum"}, "geometry": {"type": "Point", "coordinates": [140.064302, 35.7589102]}}, {"type": "Feature", "properties": {"osm_id": 1420723795, "osm_type": "node", "name": "ヒゲタ史料館", "name_ja": null, "category_key": "tourism", "category_value": "museum"}, "geometry": {"type": "Point", "coordinates": [140.819168, 35.729267]}}, {"type": "Feature", "properties": {"osm_id": 1420724265, "osm_type": "node", "name": "上花輪歴史館", "name_ja": "上花輪歴史館", "category_key": "tourism", "category_value": "museum"}, "geometry": {"type": "Point", "coordinates": [139.857457, 35.9396589]}}, {"type": "Feature", "properties": {"osm_id": 1420724765, "osm_type": "node", "name": "九十九里いわし博物館", "name_ja": null, "category_key": "tourism", "category_value": "museum"}, "geometry": {"type": "Point", "coordinates": [140.4407372, 35.5356617]}}, {"type": "Feature", "properties": {"osm_id": 1420725043, "osm_type": "node", "name": "伊能忠敬記念館", "name_ja": "伊能忠敬記念館", "category_key": "tourism", "category_value": "museum"}, "geometry": {"type": "Point", "coordinates": [140.4971635, 35.8883898]}}, {"type": "Feature", "properties": {"osm_id": 1420725166, "osm_type": "node", "name": "佐倉市武家屋敷", "name_ja": null, "category_key": "tourism", "category_value": "museum"}, "geometry": {"type": "Point", "coordinates": [140.225055, 35.716666]}}, {"type": "Feature", "properties": {"osm_id": 1420725229, "osm_type": "node", "name": "佐倉市立美術館", "name_ja": null, "category_key": "tourism", "category_value": "museum"}, "geometry": {"type": "Point", "coordinates": [140.2295957, 35.7191759]}}, {"type": "Feature", "properties": {"osm_id": 1420725364, "osm_type": "node", "name": "佐倉順天堂記念館", "name_ja": null, "category_key": "tourism", "category_value": "museum"}, "geometry": {"type": "Point", "coordinates": [140.242715, 35.718334]}}, {"type": "Feature", "properties": {"osm_id": 1420726376, "osm_type": "node", "name": "八千代市文化伝承館", "name_ja": null, "category_key": "tourism", "category_value": "museum"}, "geometry": {"type": "Point", "coordinates": [140.107443, 35.737134]}}, {"type": "Feature", "properties": {"osm_id": 1420726479, "osm_type": "node", "name": "八千代市立郷土博物館", "name_ja": null, "category_key": "tourism", "category_value": "museum"}, "geometry": {"type": "Point", "coordinates": [140.117955, 35.729821]}}, {"type": "Feature", "properties": {"osm_id": 1420728764, "osm_type": "node", "name": "千葉市立 加曽利貝塚博物館", "name_ja": null, "category_key": "tourism", "category_value": "museum"}, "geometry": {"type": "Point", "coordinates": [140.1653348, 35.6237112]}}, {"type": "Feature", "properties": {"osm_id": 1420728788, "osm_type": "node", "name": "千葉市立郷土博物館（千葉城）", "name_ja": null, "category_key": "tourism", "category_value": "museum"}, "geometry": {"type": "Point", "coordinates": [140.127101, 35.60456]}}, {"type": "Feature", "properties": {"osm_id": 1420728819, "osm_type": "node", "name": "千葉市美術館", "name_ja": null, "category_key": "tourism", "category_value": "museum"}, "geometry": {"type": "Point", "coordinates": [140.1246375, 35.6089582]}}, {"type": "Feature", "properties": {"osm_id": 1420728822, "osm_type": "node", "name": "三陽メディアフラワーミュージアム", "name_ja": null, "category_key": "tourism", "category_value": "museum"}, "geometry": {"type": "Point", "coordinates": [140.0646279, 35.6180985]}}, {"type": "Feature", "properties": {"osm_id": 1420729453, "osm_type": "node", "name": "千葉県立中央博物館", "name_ja": null, "category_key": "tourism", "category_value": "museum"}, "geometry": {"type": "Point", "coordinates": [140.138489, 35.599867]}}, {"type": "Feature", "properties": {"osm_id": 1420729458, "osm_type": "node", "name": "千葉県立中央博物館大利根分館", "name_ja": null, "category_key": "tourism", "category_value": "museum"}, "geometry": {"type": "Point", "coordinates": [140.523245, 35.930137]}}, {"type": "Feature", "properties": {"osm_id": 1420729461, "osm_type": "node", "name": "千葉県立中央博物館大多喜城分館", "name_ja": null, "category_key": "tourism", "category_value": "museum"}, "geometry": {"type": "Point", "coordinates": [140.2391733, 35.2859446]}}, {"type": "Feature", "properties": {"osm_id": 1420729468, "osm_type": "node", "name": "渚の博物館", "name_ja": "渚の博物館", "category_key": "tourism", "category_value": "museum"}, "geometry": {"type": "Point", "coordinates": [139.854934, 34.9897225]}}, {"type": "Feature", "properties": {"osm_id": 1420729483, "osm_type": "node", "name": "千葉県立現代産業科学館", "name_ja": "千葉県立現代産業科学館", "category_key": "tourism", "category_value": "museum"}, "geometry": {"type": "Point", "coordinates": [139.932598, 35.7148268]}}, {"type": "Feature", "properties": {"osm_id": 1420729566, "osm_type": "node", "name": "千葉県酪農のさと", "name_ja": "千葉県酪農のさと", "category_key": "tourism", "category_value": "museum"}, "geometry": {"type": "Point", "coordinates": [139.9893752, 35.1050615]}}, {"type": "Feature", "properties": {"osm_id": 1420730019, "osm_type": "node", "name": "印旛歴史民俗資料館", "name_ja": null, "category_key": "tourism", "category_value": "museum"}, "geometry": {"type": "Point", "coordinates": [140.167018, 35.76254]}}, {"type": "Feature", "properties": {"osm_id": 1420730315, "osm_type": "node", "name": "史跡上総国分尼寺跡展示館", "name_ja": null, "category_key": "tourism", "category_value": "museum"}, "geometry": {"type": "Point", "coordinates": [140.117502, 35.500866]}}, {"type": "Feature", "properties": {"osm_id": 1420730484, "osm_type": "node", "name": "君津市漁業資料館", "name_ja": "君津市漁業資料館", "category_key": "tourism", "category_value": "museum"}, "geometry": {"type": "Point", "coordinates": [139.866192, 35.341043]}}, {"type": "Feature", "properties": {"osm_id": 1420730538, "osm_type": "node", "name": "君津市立久留里城址資料館", "name_ja": null, "category_key": "tourism", "category_value": "museum"}, "geometry": {"type": "Point", "coordinates": [140.0878576, 35.288002]}}, {"type": "Feature", "properties": {"osm_id": 1420730690, "osm_type": "node", "name": "和洋女子大学文化資料館", "name_ja": null, "category_key": "tourism", "category_value": "museum"}, "geometry": {"type": "Point", "coordinates": [139.9042707, 35.7427126]}}, {"type": "Feature", "properties": {"osm_id": 1420731089, "osm_type": "node", "name": "国際上総埴生美術館", "name_ja": null, "category_key": "tourism", "category_value": "museum"}, "geometry": {"type": "Point", "coordinates": [140.332924, 35.382548]}}, {"type": "Feature", "properties": {"osm_id": 1420731411, "osm_type": "node", "name": "城西国際大学水田美術館", "name_ja": null, "category_key": "tourism", "category_value": "museum"}, "geometry": {"type": "Point", "coordinates": [140.3923333, 35.5816366]}}, {"type": "Feature", "properties": {"osm_id": 1420731462, "osm_type": "node", "name": "塚本美術館", "name_ja": null, "category_key": "tourism", "category_value": "museum"}, "geometry": {"type": "Point", "coordinates": [140.2283052, 35.7187983]}}, {"type": "Feature", "properties": {"osm_id": 1420731644, "osm_type": "node", "name": "大原幽学記念館", "name_ja": null, "category_key": "tourism", "category_value": "museum"}, "geometry": {"type": "Point", "coordinates": [140.620405, 35.781219]}}, {"type": "Feature", "properties": {"osm_id": 1420732336, "osm_type": "node", "name": "宗吾霊宝殿", "name_ja": null, "category_key": "tourism", "category_value": "museum"}, "geometry": {"type": "Point", "coordinates": [140.278799, 35.762073]}}, {"type": "Feature", "properties": {"osm_id": 1420733244, "osm_type": "node", "name": "川村記念美術館", "name_ja": null, "category_key": "tourism", "category_value": "museum"}, "geometry": {"type": "Point", "coordinates": [140.222947, 35.655445]}}, {"type": "Feature", "properties": {"osm_id": 1420733352, "osm_type": "node", "name": "市原市水と彫刻の丘", "name_ja": null, "category_key": "tourism", "category_value": "museum"}, "geometry": {"type": "Point", "coordinates": [140.161684, 35.34734]}}, {"type": "Feature", "properties": {"osm_id": 1420736352, "osm_type": "node", "name": "市立市川自然博物館", "name_ja": null, "category_key": "tourism", "category_value": "museum"}, "geometry": {"type": "Point", "coordinates": [139.9662477, 35.7648605]}}, {"type": "Feature", "properties": {"osm_id": 1420739353, "osm_type": "node", "name": "御宿町歴史民俗資料館", "name_ja": "御宿町歴史民俗資料館", "category_key": "tourism", "category_value": "museum"}, "geometry": {"type": "Point", "coordinates": [140.3539302, 35.1871997]}}, {"type": "Feature", "properties": {"osm_id": 1420739440, "osm_type": "node", "name": "成田山霊光館", "name_ja": null, "category_key": "tourism", "category_value": "museum"}, "geometry": {"type": "Point", "coordinates": [140.3204684, 35.7882319]}}, {"type": "Feature", "properties": {"osm_id": 1420739441, "osm_type": "node", "name": "成田市三里塚御料牧場記念館", "name_ja": null, "category_key": "tourism", "category_value": "museum"}, "geometry": {"type": "Point", "coordinates": [140.372034, 35.748434]}}, {"type": "Feature", "properties": {"osm_id": 1420739442, "osm_type": "node", "name": "成田市下総歴史民俗資料館", "name_ja": null, "category_key": "tourism", "category_value": "museum"}, "geometry": {"type": "Point", "coordinates": [140.35691, 35.872589]}}, {"type": "Feature", "properties": {"osm_id": 1420739526, "osm_type": "node", "name": "我孫子市鳥の博物館", "name_ja": "我孫子市 鳥の博物館", "category_key": "tourism", "category_value": "museum"}, "geometry": {"type": "Point", "coordinates": [140.0306378, 35.8613596]}}, {"type": "Feature", "properties": {"osm_id": 1420739546, "osm_type": "node", "name": "戸定歴史館", "name_ja": null, "category_key": "tourism", "category_value": "museum"}, "geometry": {"type": "Point", "coordinates": [139.8994357, 35.7779204]}}, {"type": "Feature", "properties": {"osm_id": 1420739752, "osm_type": "node", "name": "旧堀田邸", "name_ja": null, "category_key": "tourism", "category_value": "museum"}, "geometry": {"type": "Point", "coordinates": [140.235877, 35.714049]}}, {"type": "Feature", "properties": {"osm_id": 1420739967, "osm_type": "node", "name": "星襄一版画展示室", "name_ja": null, "category_key": "tourism", "category_value": "museum"}, "geometry": {"type": "Point", "coordinates": [140.108678, 35.724421]}}, {"type": "Feature", "properties": {"osm_id": 1420740902, "osm_type": "node", "name": "柏市立砂川美術工芸館", "name_ja": null, "category_key": "tourism", "category_value": "museum"}, "geometry": {"type": "Point", "coordinates": [139.975528, 35.870282]}}, {"type": "Feature", "properties": {"osm_id": 1420741114, "osm_type": "node", "name": "流山市立博物館", "name_ja": null, "category_key": "tourism", "category_value": "museum"}, "geometry": {"type": "Point", "coordinates": [139.902498, 35.858662]}}, {"type": "Feature", "properties": {"osm_id": 1420741192, "osm_type": "node", "name": "浦安市郷土博物館", "name_ja": null, "category_key": "tourism", "category_value": "museum"}, "geometry": {"type": "Point", "coordinates": [139.901136, 35.655169]}}, {"type": "Feature", "properties": {"osm_id": 1420741217, "osm_type": "node", "name": "海岸美術館", "name_ja": null, "category_key": "tourism", "category_value": "museum"}, "geometry": {"type": "Point", "coordinates": [139.9419587, 34.970009]}}, {"type": "Feature", "properties": {"osm_id": 1420741258, "osm_type": "node", "name": "清澄寺霊宝殿", "name_ja": null, "category_key": "tourism", "category_value": "museum"}, "geometry": {"type": "Point", "coordinates": [140.151882, 35.1607124]}}, {"type": "Feature", "properties": {"osm_id": 1420741504, "osm_type": "node", "name": "白井市郷土資料館", "name_ja": null, "category_key": "tourism", "category_value": "museum"}, "geometry": {"type": "Point", "coordinates": [140.057948, 35.790481]}}, {"type": "Feature", "properties": {"osm_id": 1420741513, "osm_type": "node", "name": "白子町歴史民俗資料室", "name_ja": "白子町歴史民俗資料室", "category_key": "tourism", "category_value": "museum"}, "geometry": {"type": "Point", "coordinates": [140.371801, 35.45433]}}, {"type": "Feature", "properties": {"osm_id": 1420741524, "osm_type": "node", "name": "白浜海洋美術館", "name_ja": "白浜海洋美術館", "category_key": "tourism", "category_value": "museum"}, "geometry": {"type": "Point", "coordinates": [139.8885297, 34.9025984]}}, {"type": "Feature", "properties": {"osm_id": 1420741740, "osm_type": "node", "name": "市立木下交流の杜歴史資料センター", "name_ja": null, "category_key": "tourism", "category_value": "museum"}, "geometry": {"type": "Point", "coordinates": [140.1553562, 35.8380564]}}, {"type": "Feature", "properties": {"osm_id": 1420741875, "osm_type": "node", "name": "睦沢町立歴史民俗資料館", "name_ja": null, "category_key": "tourism", "category_value": "museum"}, "geometry": {"type": "Point", "coordinates": [140.31477, 35.356509]}}, {"type": "Feature", "properties": {"osm_id": 1420742141, "osm_type": "node", "name": "福富雷童記念江畑美術館", "name_ja": null, "category_key": "tourism", "category_value": "museum"}, "geometry": {"type": "Point", "coordinates": [140.703563, 35.719559]}}, {"type": "Feature", "properties": {"osm_id": 1420742259, "osm_type": "node", "name": "稲毛民間航空記念館", "name_ja": null, "category_key": "tourism", "category_value": "museum"}, "geometry": {"type": "Point", "coordinates": [140.0600196, 35.6208451]}}, {"type": "Feature", "properties": {"osm_id": 1420742675, "osm_type": "node", "name": "船橋市郷土資料館", "name_ja": null, "category_key": "tourism", "category_value": "museum"}, "geometry": {"type": "Point", "coordinates": [140.04963, 35.711599]}}, {"type": "Feature", "properties": {"osm_id": 1420742677, "osm_type": "node", "name": "船橋市飛ノ台史跡公園博物館", "name_ja": null, "category_key": "tourism", "category_value": "museum"}, "geometry": {"type": "Point", "coordinates": [139.9748477, 35.7108084]}}, {"type": "Feature", "properties": {"osm_id": 1420742947, "osm_type": "node", "name": "芝山町立芝山古墳・はにわ博物館;芝山はにわ博物館", "name_ja": null, "category_key": "tourism", "category_value": "museum"}, "geometry": {"type": "Point", "coordinates": [140.428485, 35.694]}}, {"type": "Feature", "properties": {"osm_id": 1420742998, "osm_type": "node", "name": "茂原市立美術館・郷土資料館", "name_ja": null, "category_key": "tourism", "category_value": "museum"}, "geometry": {"type": "Point", "coordinates": [140.280233, 35.430138]}}, {"type": "Feature", "properties": {"osm_id": 1420743390, "osm_type": "node", "name": "野田市郷土博物館", "name_ja": null, "category_key": "tourism", "category_value": "museum"}, "geometry": {"type": "Point", "coordinates": [139.8654776, 35.9453545]}}, {"type": "Feature", "properties": {"osm_id": 1420743391, "osm_type": "node", "name": "野田市鈴木貫太郎記念館", "name_ja": null, "category_key": "tourism", "category_value": "museum"}, "geometry": {"type": "Point", "coordinates": [139.785793, 36.091218]}}, {"type": "Feature", "properties": {"osm_id": 1420743481, "osm_type": "node", "name": "鋸南町歴史民俗資料館（菱川師宣記念館）", "name_ja": null, "category_key": "tourism", "category_value": "museum"}, "geometry": {"type": "Point", "coordinates": [139.8363774, 35.1282233]}}, {"type": "Feature", "properties": {"osm_id": 1420743500, "osm_type": "node", "name": "鎌ケ谷市郷土資料館", "name_ja": null, "category_key": "tourism", "category_value": "museum"}, "geometry": {"type": "Point", "coordinates": [139.9999644, 35.7729106]}}, {"type": "Feature", "properties": {"osm_id": 1420743532, "osm_type": "node", "name": "長南町郷土資料館", "name_ja": null, "category_key": "tourism", "category_value": "museum"}, "geometry": {"type": "Point", "coordinates": [140.236221, 35.385993]}}, {"type": "Feature", "properties": {"osm_id": 1420743768, "osm_type": "node", "name": "香取市文化財保存館", "name_ja": null, "category_key": "tourism", "category_value": "museum"}, "geometry": {"type": "Point", "coordinates": [140.606129, 35.851086]}}, {"type": "Feature", "properties": {"osm_id": 1420743890, "osm_type": "node", "name": "鴨川市民ギャラリー", "name_ja": null, "category_key": "tourism", "category_value": "museum"}, "geometry": {"type": "Point", "coordinates": [140.103809, 35.105178]}}, {"type": "Feature", "properties": {"osm_id": 1420743892, "osm_type": "node", "name": "房総自由民権資料館", "name_ja": null, "category_key": "tourism", "category_value": "museum"}, "geometry": {"type": "Point", "coordinates": [140.0387686, 35.1282551]}}, {"type": "Feature", "properties": {"osm_id": 1420743905, "osm_type": "node", "name": "鴨川市郷土資料館・文化財センター", "name_ja": null, "category_key": "tourism", "category_value": "museum"}, "geometry": {"type": "Point", "coordinates": [140.099477, 35.112771]}}, {"type": "Feature", "properties": {"osm_id": 1420743959, "osm_type": "node", "name": "鹿野山神野寺宝物拝観所", "name_ja": null, "category_key": "tourism", "category_value": "museum"}, "geometry": {"type": "Point", "coordinates": [139.963197, 35.254763]}}, {"type": "Feature", "properties": {"osm_id": 1420743963, "osm_type": "node", "name": "麻雀博物館", "name_ja": null, "category_key": "tourism", "category_value": "museum"}, "geometry": {"type": "Point", "coordinates": [140.393922, 35.330591]}}, {"type": "Feature", "properties": {"osm_id": 1420743965, "osm_type": "node", "name": "黒汐資料館", "name_ja": "黒汐資料館", "category_key": "tourism", "category_value": "museum"}, "geometry": {"type": "Point", "coordinates": [140.3084839, 35.1503628]}}, {"type": "Feature", "properties": {"osm_id": 1420743974, "osm_type": "node", "name": null, "name_ja": null, "category_key": "tourism", "category_value": "museum"}, "geometry": {"type": "Point", "coordinates": [140.1109615, 35.6024338]}}, {"type": "Feature", "properties": {"osm_id": 1420746411, "osm_type": "node", "name": "下総史料館", "name_ja": null, "category_key": "tourism", "category_value": "museum"}, "geometry": {"type": "Point", "coordinates": [139.9432138, 35.7683555]}}, {"type": "Feature", "properties": {"osm_id": 1420763518, "osm_type": "node", "name": "岡部宿大旅籠柏屋", "name_ja": null, "category_key": "tourism", "category_value": "museum"}, "geometry": {"type": "Point", "coordinates": [138.2826715, 34.9192941]}}, {"type": "Feature", "properties": {"osm_id": 1420763792, "osm_type": "node", "name": "あきる野市五日市郷土館", "name_ja": null, "category_key": "tourism", "category_value": "museum"}, "geometry": {"type": "Point", "coordinates": [139.2169636, 35.7283961]}}, {"type": "Feature", "properties": {"osm_id": 1420763962, "osm_type": "node", "name": "くにたち郷土文化館", "name_ja": null, "category_key": "tourism", "category_value": "museum"}, "geometry": {"type": "Point", "coordinates": [139.43259, 35.678984]}}, {"type": "Feature", "properties": {"osm_id": 1420764126, "osm_type": "node", "name": "たましん歴史・美術館", "name_ja": null, "category_key": "tourism", "category_value": "museum"}, "geometry": {"type": "Point", "coordinates": [139.44621, 35.698033]}}, {"type": "Feature", "properties": {"osm_id": 1420764135, "osm_type": "node", "name": "ちひろ美術館・東京", "name_ja": null, "category_key": "tourism", "category_value": "museum"}, "geometry": {"type": "Point", "coordinates": [139.605084, 35.728478]}}, {"type": "Feature", "properties": {"osm_id": 1420764431, "osm_type": "node", "name": "ふれあい下水道館", "name_ja": null, "category_key": "tourism", "category_value": "museum"}, "geometry": {"type": "Point", "coordinates": [139.464617, 35.720172]}}, {"type": "Feature", "properties": {"osm_id": 1420765070, "osm_type": "node", "name": "エース世界のカバン博物館", "name_ja": null, "category_key": "tourism", "category_value": "museum"}, "geometry": {"type": "Point", "coordinates": [139.795315, 35.708056]}}, {"type": "Feature", "properties": {"osm_id": 1420765210, "osm_type": "node", "name": "セイコーミュージアム", "name_ja": "セイコーミュージアム", "category_key": "tourism", "category_value": "museum"}, "geometry": {"type": "Point", "coordinates": [139.813256, 35.726726]}}, {"type": "Feature", "properties": {"osm_id": 1420765213, "osm_type": "node", "name": "センチュリーミュージアム", "name_ja": null, "category_key": "tourism", "category_value": "museum"}, "geometry": {"type": "Point", "coordinates": [139.7597595, 35.702532]}}, {"type": "Feature", "properties": {"osm_id": 1420765316, "osm_type": "node", "name": "ブレーキ博物館", "name_ja": null, "category_key": "tourism", "category_value": "museum"}, "geometry": {"type": "Point", "coordinates": [139.809419, 35.694138]}}, {"type": "Feature", "properties": {"osm_id": 1420765386, "osm_type": "node", "name": "ユニセフハウス", "name_ja": null, "category_key": "tourism", "category_value": "museum"}, "geometry": {"type": "Point", "coordinates": [139.73305, 35.627927]}}, {"type": "Feature", "properties": {"osm_id": 1420765471, "osm_type": "node", "name": "三井記念美術館", "name_ja": null, "category_key": "tourism", "category_value": "museum"}, "geometry": {"type": "Point", "coordinates": [139.7730738, 35.6868356]}}, {"type": "Feature", "properties": {"osm_id": 1420766065, "osm_type": "node", "name": "世田谷区立郷土資料館", "name_ja": "世田谷区立郷土資料館", "category_key": "tourism", "category_value": "museum"}, "geometry": {"type": "Point", "coordinates": [139.647222, 35.641461]}}, {"type": "Feature", "properties": {"osm_id": 1420766084, "osm_type": "node", "name": "世田谷文学館", "name_ja": null, "category_key": "tourism", "category_value": "museum"}, "geometry": {"type": "Point", "coordinates": [139.608873, 35.666922]}}, {"type": "Feature", "properties": {"osm_id": 1420766113, "osm_type": "node", "name": "世田谷美術館", "name_ja": null, "category_key": "tourism", "category_value": "museum"}, "geometry": {"type": "Point", "coordinates": [139.6222, 35.631624]}}, {"type": "Feature", "properties": {"osm_id": 1420766180, "osm_type": "node", "name": "中央区立築地社会教育会館・郷土資料館", "name_ja": null, "category_key": "tourism", "category_value": "museum"}, "geometry": {"type": "Point", "coordinates": [139.7680837, 35.6664905]}}, {"type": "Feature", "properties": {"osm_id": 1420766408, "osm_type": "node", "name": "中近東文化センター付属博物館", "name_ja": null, "category_key": "tourism", "category_value": "museum"}, "geometry": {"type": "Point", "coordinates": [139.533894, 35.688803]}}, {"type": "Feature", "properties": {"osm_id": 1420766554, "osm_type": "node", "name": "久米美術館", "name_ja": null, "category_key": "tourism", "category_value": "museum"}, "geometry": {"type": "Point", "coordinates": [139.714759, 35.634545]}}, {"type": "Feature", "properties": {"osm_id": 1420766636, "osm_type": "node", "name": "五島美術館", "name_ja": null, "category_key": "tourism", "category_value": "museum"}, "geometry": {"type": "Point", "coordinates": [139.6353641, 35.612436]}}, {"type": "Feature", "properties": {"osm_id": 1420766922, "osm_type": "node", "name": "伊豆大島火山博物館", "name_ja": "伊豆大島火山博物館", "category_key": "tourism", "category_value": "museum"}, "geometry": {"type": "Point", "coordinates": [139.3599974, 34.7440119]}}, {"type": "Feature", "properties": {"osm_id": 1420766948, "osm_type": "node", "name": "佐藤美術館", "name_ja": null, "category_key": "tourism", "category_value": "museum"}, "geometry": {"type": "Point", "coordinates": [139.714976, 35.681682]}}, {"type": "Feature", "properties": {"osm_id": 1420767194, "osm_type": "node", "name": "光が丘美術館", "name_ja": null, "category_key": "tourism", "category_value": "museum"}, "geometry": {"type": "Point", "coordinates": [139.63241, 35.759551]}}, {"type": "Feature", "properties": {"osm_id": 1420767670, "osm_type": "node", "name": "八王子市こども科学館（サイエンスドーム八王子）", "name_ja": null, "category_key": "tourism", "category_value": "museum"}, "geometry": {"type": "Point", "coordinates": [139.327845, 35.664774]}}, {"type": "Feature", "properties": {"osm_id": 1420767886, "osm_type": "node", "name": "凧の博物館", "name_ja": null, "category_key": "tourism", "category_value": "museum"}, "geometry": {"type": "Point", "coordinates": [139.7751576, 35.6844275]}}, {"type": "Feature", "properties": {"osm_id": 1420767888, "osm_type": "node", "name": "刀剣博物館", "name_ja": null, "category_key": "tourism", "category_value": "museum"}, "geometry": {"type": "Point", "coordinates": [139.6906746, 35.6814885]}}, {"type": "Feature", "properties": {"osm_id": 1420767889, "osm_type": "node", "name": "切手の博物館", "name_ja": null, "category_key": "tourism", "category_value": "museum"}, "geometry": {"type": "Point", "coordinates": [139.7057801, 35.7182677]}}, {"type": "Feature", "properties": {"osm_id": 1420770189, "osm_type": "node", "name": "千代田区立四番町図書館", "name_ja": null, "category_key": "tourism", "category_value": "museum"}, "geometry": {"type": "Point", "coordinates": [139.739749, 35.689474]}}, {"type": "Feature", "properties": {"osm_id": 1420770260, "osm_type": "node", "name": "千秋文庫博物館", "name_ja": null, "category_key": "tourism", "category_value": "museum"}, "geometry": {"type": "Point", "coordinates": [139.74649, 35.693263]}}, {"type": "Feature", "properties": {"osm_id": 1420770935, "osm_type": "node", "name": "印刷博物館", "name_ja": "印刷博物館", "category_key": "tourism", "category_value": "museum"}, "geometry": {"type": "Point", "coordinates": [139.7414372, 35.7091646]}}, {"type": "Feature", "properties": {"osm_id": 1420771074, "osm_type": "node", "name": "古代オリエント博物館", "name_ja": null, "category_key": "tourism", "category_value": "museum"}, "geometry": {"type": "Point", "coordinates": [139.7209684, 35.7287322]}}, {"type": "Feature", "properties": {"osm_id": 1420771079, "osm_type": "node", "name": "古賀政男音楽博物館", "name_ja": null, "category_key": "tourism", "category_value": "museum"}, "geometry": {"type": "Point", "coordinates": [139.6800138, 35.6676979]}}, {"type": "Feature", "properties": {"osm_id": 1420771103, "osm_type": "node", "name": "台東区立書道博物館", "name_ja": null, "category_key": "tourism", "category_value": "museum"}, "geometry": {"type": "Point", "coordinates": [139.7765428, 35.7246554]}}, {"type": "Feature", "properties": {"osm_id": 1420771159, "osm_type": "node", "name": "吉川英治記念館", "name_ja": "吉川英治記念館", "category_key": "tourism", "category_value": "museum"}, "geometry": {"type": "Point", "coordinates": [139.213097, 35.796313]}}, {"type": "Feature", "properties": {"osm_id": 1420771165, "osm_type": "node", "name": "吉田苞竹記念会館", "name_ja": null, "category_key": "tourism", "category_value": "museum"}, "geometry": {"type": "Point", "coordinates": [139.7417064, 35.663653]}}, {"type": "Feature", "properties": {"osm_id": 1420771385, "osm_type": "node", "name": "唐澤博物館", "name_ja": null, "category_key": "tourism", "category_value": "museum"}, "geometry": {"type": "Point", "coordinates": [139.662573, 35.733027]}}, {"type": "Feature", "properties": {"osm_id": 1420771577, "osm_type": "node", "name": "国分寺市文化財保存館", "name_ja": null, "category_key": "tourism", "category_value": "museum"}, "geometry": {"type": "Point", "coordinates": [139.4728009, 35.6938704]}}, {"type": "Feature", "properties": {"osm_id": 1420771578, "osm_type": "node", "name": "国分寺市文化財資料展示室", "name_ja": null, "category_key": "tourism", "category_value": "museum"}, "geometry": {"type": "Point", "coordinates": [139.4698781, 35.690948]}}, {"type": "Feature", "properties": {"osm_id": 1420771579, "osm_type": "node", "name": "国分寺市民俗資料室", "name_ja": "国分寺市民俗資料室", "category_key": "tourism", "category_value": "museum"}, "geometry": {"type": "Point", "coordinates": [139.485189, 35.706781]}}, {"type": "Feature", "properties": {"osm_id": 1420771652, "osm_type": "node", "name": "国立印刷局博物館", "name_ja": "国立印刷局博物館", "category_key": "tourism", "category_value": "museum"}, "geometry": {"type": "Point", "coordinates": [139.729273, 35.69496]}}, {"type": "Feature", "properties": {"osm_id": 1420771752, "osm_type": "node", "name": "國學院大學博物館", "name_ja": null, "category_key": "tourism", "category_value": "museum"}, "geometry": {"type": "Point", "coordinates": [139.7112005, 35.6562172]}}, {"type": "Feature", "properties": {"osm_id": 1420772465, "osm_type": "node", "name": "多摩六都科学館", "name_ja": "多摩六都科学館", "category_key": "tourism", "category_value": "museum"}, "geometry": {"type": "Point", "coordinates": [139.5230366, 35.7345533]}}, {"type": "Feature", "properties": {"osm_id": 1420772919, "osm_type": "node", "name": "大倉集古館", "name_ja": "大倉集古館", "category_key": "tourism", "category_value": "museum"}, "geometry": {"type": "Point", "coordinates": [139.7432191, 35.666923]}}, {"type": "Feature", "properties": {"osm_id": 1420772944, "osm_type": "node", "name": "大名時計博物館", "name_ja": null, "category_key": "tourism", "category_value": "museum"}, "geometry": {"type": "Point", "coordinates": [139.766182, 35.721289]}}, {"type": "Feature", "properties": {"osm_id": 1420773057, "osm_type": "node", "name": "大国魂神社宝物殿", "name_ja": "大国魂神社宝物殿", "category_key": "tourism", "category_value": "museum"}, "geometry": {"type": "Point", "coordinates": [139.4785926, 35.6681332]}}, {"type": "Feature", "properties": {"osm_id": 1420774099, "osm_type": "node", "name": "大田区多摩川台公園古墳展示室", "name_ja": null, "category_key": "tourism", "category_value": "museum"}, "geometry": {"type": "Point", "coordinates": [139.666945, 35.590134]}}, {"type": "Feature", "properties": {"osm_id": 1420774303, "osm_type": "node", "name": "大田区立郷土博物館", "name_ja": "大田区立郷土博物館", "category_key": "tourism", "category_value": "museum"}, "geometry": {"type": "Point", "coordinates": [139.7106663, 35.5885312]}}, {"type": "Feature", "properties": {"osm_id": 1420774314, "osm_type": "node", "name": "大田区立龍子記念館", "name_ja": null, "category_key": "tourism", "category_value": "museum"}, "geometry": {"type": "Point", "coordinates": [139.715623, 35.582343]}}, {"type": "Feature", "properties": {"osm_id": 1420774587, "osm_type": "node", "name": "大谷美術館", "name_ja": null, "category_key": "tourism", "category_value": "museum"}, "geometry": {"type": "Point", "coordinates": [139.7457809, 35.7431053]}}, {"type": "Feature", "properties": {"osm_id": 1420774624, "osm_type": "node", "name": "天理ギャラリー", "name_ja": null, "category_key": "tourism", "category_value": "museum"}, "geometry": {"type": "Point", "coordinates": [139.764418, 35.691776]}}, {"type": "Feature", "properties": {"osm_id": 1420774658, "osm_type": "node", "name": "太田記念美術館", "name_ja": "太田記念美術館", "category_key": "tourism", "category_value": "museum"}, "geometry": {"type": "Point", "coordinates": [139.7049049, 35.6693982]}}, {"type": "Feature", "properties": {"osm_id": 1420774661, "osm_type": "node", "name": "太皷館", "name_ja": null, "category_key": "tourism", "category_value": "museum"}, "geometry": {"type": "Point", "coordinates": [139.791779, 35.711815]}}, {"type": "Feature", "properties": {"osm_id": 1420774970, "osm_type": "node", "name": "実践女子学園香雪記念資料館", "name_ja": null, "category_key": "tourism", "category_value": "museum"}, "geometry": {"type": "Point", "coordinates": [139.390222, 35.671442]}}, {"type": "Feature", "properties": {"osm_id": 1420775065, "osm_type": "node", "name": "宮城道雄記念館", "name_ja": null, "category_key": "tourism", "category_value": "museum"}, "geometry": {"type": "Point", "coordinates": [139.736845, 35.699758]}}, {"type": "Feature", "properties": {"osm_id": 1420775074, "osm_type": "node", "name": "家具の博物館", "name_ja": null, "category_key": "tourism", "category_value": "museum"}, "geometry": {"type": "Point", "coordinates": [139.377966, 35.71367]}}, {"type": "Feature", "properties": {"osm_id": 1420776990, "osm_type": "node", "name": "山崎記念中野区立歴史民俗資料館", "name_ja": "山崎記念中野区立歴史民俗資料館", "category_key": "tourism", "category_value": "museum"}, "geometry": {"type": "Point", "coordinates": [139.664992, 35.724316]}}, {"type": "Feature", "properties": {"osm_id": 1420779754, "osm_type": "node", "name": "平和祈念展示資料館", "name_ja": null, "category_key": "tourism", "category_value": "museum"}, "geometry": {"type": "Point", "coordinates": [139.6925118, 35.6912618]}}, {"type": "Feature", "properties": {"osm_id": 1420780101, "osm_type": "node", "name": "弥生美術館・竹久夢二美術館", "name_ja": null, "category_key": "tourism", "category_value": "museum"}, "geometry": {"type": "Point", "coordinates": [139.7634784, 35.7149026]}}, {"type": "Feature", "properties": {"osm_id": 1420780206, "osm_type": "node", "name": "徳蔵寺板碑保存館", "name_ja": null, "category_key": "tourism", "category_value": "museum"}, "geometry": {"type": "Point", "coordinates": [139.4681109, 35.7704387]}}, {"type": "Feature", "properties": {"osm_id": 1420780290, "osm_type": "node", "name": "YEBISU BREWERY TOKYO", "name_ja": null, "category_key": "tourism", "category_value": "museum"}, "geometry": {"type": "Point", "coordinates": [139.714541, 35.643088]}}, {"type": "Feature", "properties": {"osm_id": 1420780469, "osm_type": "node", "name": "成蹊学園史料館", "name_ja": "成蹊学園史料館", "category_key": "tourism", "category_value": "museum"}, "geometry": {"type": "Point", "coordinates": [139.5732115, 35.7104432]}}, {"type": "Feature", "properties": {"osm_id": 1420780494, "osm_type": "node", "name": "戸栗美術館", "name_ja": "戸栗美術館", "category_key": "tourism", "category_value": "museum"}, "geometry": {"type": "Point", "coordinates": [139.6927998, 35.6614398]}}, {"type": "Feature", "properties": {"osm_id": 1420780641, "osm_type": "node", "name": "文京ふるさと歴史館", "name_ja": null, "category_key": "tourism", "category_value": "museum"}, "geometry": {"type": "Point", "coordinates": [139.756582, 35.707984]}}, {"type": "Feature", "properties": {"osm_id": 1420780738, "osm_type": "node", "name": "文化学園服飾博物館", "name_ja": null, "category_key": "tourism", "category_value": "museum"}, "geometry": {"type": "Point", "coordinates": [139.69501, 35.686322]}}, {"type": "Feature", "properties": {"osm_id": 1420780821, "osm_type": "node", "name": "新宿歴史博物館", "name_ja": null, "category_key": "tourism", "category_value": "museum"}, "geometry": {"type": "Point", "coordinates": [139.72563, 35.690013]}}, {"type": "Feature", "properties": {"osm_id": 1420780833, "osm_type": "node", "name": "新宿美術館", "name_ja": null, "category_key": "tourism", "category_value": "museum"}, "geometry": {"type": "Point", "coordinates": [139.710742, 35.6911]}}, {"type": "Feature", "properties": {"osm_id": 1420780862, "osm_type": "node", "name": "新島村博物館", "name_ja": "新島村博物館", "category_key": "tourism", "category_value": "museum"}, "geometry": {"type": "Point", "coordinates": [139.259222, 34.381529]}}, {"type": "Feature", "properties": {"osm_id": 1420780980, "osm_type": "node", "name": "日本カメラ博物館", "name_ja": null, "category_key": "tourism", "category_value": "museum"}, "geometry": {"type": "Point", "coordinates": [139.7428472, 35.6860582]}}, {"type": "Feature", "properties": {"osm_id": 1420781050, "osm_type": "node", "name": "日本女子大学成瀬記念館", "name_ja": null, "category_key": "tourism", "category_value": "museum"}, "geometry": {"type": "Point", "coordinates": [139.71988, 35.716316]}}, {"type": "Feature", "properties": {"osm_id": 1420781066, "osm_type": "node", "name": "日本書道美術館", "name_ja": null, "category_key": "tourism", "category_value": "museum"}, "geometry": {"type": "Point", "coordinates": [139.6901907, 35.7596612]}}, {"type": "Feature", "properties": {"osm_id": 1420781094, "osm_type": "node", "name": "日本民藝館", "name_ja": null, "category_key": "tourism", "category_value": "museum"}, "geometry": {"type": "Point", "coordinates": [139.679219, 35.660849]}}, {"type": "Feature", "properties": {"osm_id": 1420781262, "osm_type": "node", "name": "日野市郷土資料館", "name_ja": null, "category_key": "tourism", "category_value": "museum"}, "geometry": {"type": "Point", "coordinates": [139.41149, 35.652482]}}, {"type": "Feature", "properties": {"osm_id": 1420781297, "osm_type": "node", "name": "早稲田大学坪内博士記念演劇博物館", "name_ja": null, "category_key": "tourism", "category_value": "museum"}, "geometry": {"type": "Point", "coordinates": [139.7195469, 35.7099831]}}, {"type": "Feature", "properties": {"osm_id": 1420781298, "osm_type": "node", "name": "早稲田大学會津八一記念博物館", "name_ja": null, "category_key": "tourism", "category_value": "museum"}, "geometry": {"type": "Point", "coordinates": [139.7203599, 35.708554]}}, {"type": "Feature", "properties": {"osm_id": 1420781347, "osm_type": "node", "name": "明治大学博物館", "name_ja": null, "category_key": "tourism", "category_value": "museum"}, "geometry": {"type": "Point", "coordinates": [139.7621517, 35.6986987]}}, {"type": "Feature", "properties": {"osm_id": 1420781405, "osm_type": "node", "name": "昭和レトロ商品博物館", "name_ja": "昭和レトロ商品博物館", "category_key": "tourism", "category_value": "museum"}, "geometry": {"type": "Point", "coordinates": [139.2604677, 35.7887172]}}, {"type": "Feature", "properties": {"osm_id": 1420781418, "osm_type": "node", "name": "昭和天皇記念館", "name_ja": null, "category_key": "tourism", "category_value": "museum"}, "geometry": {"type": "Point", "coordinates": [139.4078602, 35.7033315]}}, {"type": "Feature", "properties": {"osm_id": 1420781419, "osm_type": "node", "name": "昭和女子大学光葉博物館", "name_ja": null, "category_key": "tourism", "category_value": "museum"}, "geometry": {"type": "Point", "coordinates": [139.677022, 35.6435213]}}, {"type": "Feature", "properties": {"osm_id": 1420782231, "osm_type": "node", "name": "杉野学園衣裳博物館", "name_ja": null, "category_key": "tourism", "category_value": "museum"}, "geometry": {"type": "Point", "coordinates": [139.715856, 35.630742]}}, {"type": "Feature", "properties": {"osm_id": 1420782243, "osm_type": "node", "name": "村内美術館", "name_ja": null, "category_key": "tourism", "category_value": "museum"}, "geometry": {"type": "Point", "coordinates": [139.3367447, 35.6796931]}}, {"type": "Feature", "properties": {"osm_id": 1420782618, "osm_type": "node", "name": "東京オペラシティアートギャラリー", "name_ja": null, "category_key": "tourism", "category_value": "museum"}, "geometry": {"type": "Point", "coordinates": [139.686756, 35.683003]}}, {"type": "Feature", "properties": {"osm_id": 1420783697, "osm_type": "node", "name": "東京大空襲・戦災資料センター", "name_ja": null, "category_key": "tourism", "category_value": "museum"}, "geometry": {"type": "Point", "coordinates": [139.822264, 35.681744]}}, {"type": "Feature", "properties": {"osm_id": 1420783718, "osm_type": "node", "name": "東京女子医科大学史料室・吉岡彌生記念室", "name_ja": null, "category_key": "tourism", "category_value": "museum"}, "geometry": {"type": "Point", "coordinates": [139.72029, 35.697188]}}, {"type": "Feature", "properties": {"osm_id": 1420783861, "osm_type": "node", "name": "東京家政大学博物館", "name_ja": null, "category_key": "tourism", "category_value": "museum"}, "geometry": {"type": "Point", "coordinates": [139.7212985, 35.7551522]}},